id,name,address,price,type1,type2,type3,type4,region,avg_price,simp_type,Districts,lon,lat
1,Sinmei Tea,"5/F, CS Tower, 50 Wing Lok Street, Sheung Wan",$51-$100,International,Meatless Menu,Coffee Shop,Casual Drink,Sheung Wan,75,International,Central and Western,114.151796,22.2862994
2,Sabor Spanish Touch Private Kitchen,"Rm 601, 6/F, Cheung's Building, 1-3 Wing Lok Street, Sheung Wan",$201-$400,Spanish,Private Kitchen,,,Sheung Wan,150,Western,Central and Western,114.1538818,22.2856373
3,Green Orange,"2/F, CS Tower, 50 Wing Lok Street, Sheung Wan",$101-$200,Western,Western Restaurant,,,Sheung Wan,300,Western,Central and Western,114.151796,22.2862994
4,teakha,"Shop B, 18 Tai Ping Shan Road, Sheung Wan",$51-$100,Western,Bakery,Outdoor,Tea House,Sheung Wan,75,Western,Central and Western,114.148457,22.284433
5,Shui Kee Coffee,"Shop 17, 18167, Sheung Wan",Below $50,Hong Kong Style,Tea Restaurant,Dai Pai Dong,,Sheung Wan,40,Hong Kong,Central and Western,114.121775,22.508509
6,La Postre,"3/F, CS Tower, 50 Wing Lok Street, Sheung Wan",$101-$200,Spanish,International,Dessert,,Sheung Wan,300,Western,Central and Western,114.151796,22.2862994
7,Pizzeria JACOMAX,"Shop C, 88 Commercial Building, 38-42 Wing lok Street, Sheung Wan",$101-$200,Italian,Pizza,Fast Food,,Sheung Wan,300,Western,Central and Western,114.1521598,22.2860786
8,Trattoria Doppio Zero,"G/F, The Pemberton, 22 Bonham Strand, Sheung Wan",$201-$400,Italian,Wine/Cigar,Western Restaurant,,Sheung Wan,150,Western,Central and Western,114.1521281,22.2854991
9,Cafe Deadend,"G/F, 72 Po Hing Fong, Sheung Wan",$101-$200,Western,Bakery,Coffee Shop,,Sheung Wan,300,Western,Central and Western,114.148156,22.283828
10,Viet Thai,"G/F, Yue Thai Commercial Building, 128 Connaught Road Central, Sheung Wan",$51-$100,Vietnamese,Thai,Noodles/Rice Noodles,Dessert,Sheung Wan,75,Asian,Central and Western,114.1521069,22.2869771
11,Lin Heung Kui,"2-3/F, 46-50 Des Voeux Road West, Sheung Wan",$101-$200,Guangdong,Noodles/Rice Noodles,Congee,Dim Sum,Sheung Wan,300,Hong Kong,Central and Western,114.1469515,22.287449
12,Foxtail & Broomcorn,"G/F, 84 Jervois Street, Sheung Wan",$51-$100,International,Noodles/Rice Noodles,Stir-Fry,Western Restaurant,Sheung Wan,75,International,Central and Western,114.1510695,22.2848894
13,Kale,"Room 1301, Cheungs Building, 1-3 Wing Lok Street, Sheung Wan",$51-$100,International,Bakery,Hamburger,Coffee Shop,Sheung Wan,75,International,Central and Western,114.1538818,22.2856373
14,Namaste Kitchen,"G/F, 38 Queens Road West, Sheung Wan",$51-$100,Indian,Nepalese,BBQ,Curry,Sheung Wan,75,South Asian,Central and Western,114.1478884,22.2866645
15,Basmati,"1/F, San Toi Building, 137-139 Connaught Road, Sheung Wan",Below $50,Indian,BBQ,Curry,,Sheung Wan,40,South Asian,Central and Western,114.1517764,22.2870536
16,Blue Butcher Bar & Restaurant,"108 Hollywood Road, Sheung Wan",$401-$800,International,Western Restaurant,Bar,,Sheung Wan,600,International,Central and Western,114.1507624,22.2838252
17,DK Cuppa Tea,"G/F, 19 New Market Street, Sheung Wan",$51-$100,Western,Coffee Shop,,,Sheung Wan,75,Western,Central and Western,114.1499834,22.2872764
18,Hoi On Cafe,"G/F, 17, Connaught Road, Sheung Wan",Below $50,Hong Kong Style,Tea Restaurant,,,Sheung Wan,40,Hong Kong,Central and Western,114.1409155,22.2888102
19,LA Creperie,"GF, 69 Jervois Street, Sheung Wan",$101-$200,French,Dessert,Meatless Menu,Western Restaurant,Sheung Wan,300,Western,Central and Western,114.1511045,22.285223
20,La Parole,"3/F, The Pemberton, 22-26 Bonham Strand, Sheung Wan",$401-$800,French,Western Restaurant,Social Enterprise Restaurant,,Sheung Wan,600,Western,Central and Western,114.1521281,22.2854991
21,The Popsy Room,"G/F, 30 Upper Lascar Row, Sheung Wan",Above $801,French,International,Wine/Cigar,Vegetarian,Sheung Wan,1200,Western,Central and Western,114.1497106,22.2848258
22,DANDAN Soul Food From Sichuan,"Shop 101A, Grand Millennium Plaza, 181 Queen's Road Central, Sheung Wan",$51-$100,Sichuan,Noodles/Rice Noodles,Stir-Fry,Fast Food,Sheung Wan,75,Chinese,Central and Western,114.1533557,22.2851111
23,Cedele,"Shop G08, Infinitus Plaza, 199 Des Voeux Rd, Sheung Wan",$51-$100,Western,Bakery,Dessert,Meatless Menu,Sheung Wan,75,Western,Central and Western,114.1427782,22.287981
24,Little Break Coffee & Kitchen,"G/F, Xiu Ping Commercial Building, 104 Jervois Street, Sheung Wan",$101-$200,Western,All Day Breakfast,Coffee Shop,,Sheung Wan,300,Western,Central and Western,114.150691,22.2851369
25,Kwong Lung Hong,"G/F, 119 Wing Lok Street, Sheung Wan",$101-$200,Guangdong,Shanghai Hairy Crab,Takeaway,,Sheung Wan,300,Hong Kong,Central and Western,114.1513031,22.2862472
26,Upper Modern Bistro,"G/F, 6-14 Upper Station Street, Sheung Wan",$401-$800,French,Western Restaurant,,,Sheung Wan,600,Western,Central and Western,114.1484872,22.2851242
27,Shou Zen,"7/F, The Pemberton, 22-26 Bonham Strand, Sheung Wan",$201-$400,Japanese,Social Enterprise Restaurant,,,Sheung Wan,150,Asian,Central and Western,114.1521281,22.2854991
28,Moon Thai,"2/F, Holiday Inn Express Honk Kong Soho, 83 Jervois Road, Sheung Wan",$101-$200,Thai,Hotel Restaurant,Outdoor,,Sheung Wan,300,Asian,Central and Western,114.1521281,22.2854991
29,Tabibito,"G/F., 20 Po Hing Fong, Sheung Wan",$401-$800,Japanese,Spanish,Seafood,Skewer,Sheung Wan,600,Asian,Central and Western,114.1474484,22.2845459
30,Pasta PaPa,"Room 201, 2/F Cheungs Building, 1-3 Wing Lok Street, Sheung Wan",$51-$100,Italian,Upper-floor Cafe,,,Sheung Wan,75,Western,Central and Western,114.1538818,22.2856373
31,Shelter Lounge,"Shop A,G/F.&1/F., Universal Building, 5-13 New Street, Sheung Wan",$201-$400,Western,Seafood,Western Restaurant,,Sheung Wan,150,Western,Central and Western,114.1538818,22.2856373
32,Oolaa,"G/F, Centre Stage, 108 Hollywood Road (facing Bridges Street), Sheung Wan",$201-$400,International,Seafood,Pizza,All Day Breakfast,Sheung Wan,150,International,Central and Western,114.1499675,22.283601
33,Bibo,"G/F, 163 Hollywood Road, Sheung Wan",Above $801,French,Wine/Cigar,Fine Dining,Western Restaurant,Sheung Wan,1200,Western,Central and Western,114.1499429,22.2843736
34,Ma Sa Restaurant,"G/F, 23 Hiller Street, Sheung Wan",Below $50,Hong Kong Style,Noodles/Rice Noodles,Tea Restaurant,,Sheung Wan,40,Hong Kong,Central and Western,114.151407,22.285391
35,Corner Kitchen Cafe,"G/F, 226 Hollywood Road, Sheung Wan",$101-$200,Western,Sandwich,Hamburger,All Day Breakfast,Sheung Wan,300,Western,Central and Western,114.147405,22.285643
36,Vermicelli and fish soup specialist,"G/F, 10 Hillier Street, Sheung Wan",Below $50,Hong Kong Style,Noodles/Rice Noodles,,,Sheung Wan,40,Hong Kong,Central and Western,114.1516692,22.2854332
37,Tim's Kitchen,"Shop A, G/F & 1/F, 84-90 Bonham Strand, Sheung Wan",$401-$800,Guangdong,Stir-Fry,,,Sheung Wan,600,Hong Kong,Central and Western,114.150468,22.285959
38,NOSH Tai Ping Shan,"G/F.,, 11 Upper Station Street, Sheung Wan",$101-$200,Western,Bakery,Coffee Shop,,Sheung Wan,300,Western,Central and Western,114.1482157,22.2848688
39,3rd Space,"G/F, Tai Hing Building, 22A Po Hing Fong, Sheung Wan",$101-$200,Western,International,Dessert,Hamburger,Sheung Wan,300,Western,Central and Western,114.1475266,22.2843699
40,Zumufi,"Shop D, G/F, Willy Commercial Building, 28-36 Wing Kut Street, Sheung Wan",$51-$100,Western,Bakery,Taiwanese Drink,Coffee Shop,Sheung Wan,75,Western,Central and Western,114.1541217,22.285282
41,Dim Sum Square,"G/F., Fu Fai Commercial Centre, 27 Hillier Street, Sheung Wan",$51-$100,Hong Kong Style,Dim Sum,,,Sheung Wan,75,Hong Kong,Central and Western,114.1512376,22.2851701
42,Crafty Cow,"G/F, 3-3A Upper Station Street, Sheung Wan",$201-$400,American,Steak House,,,Sheung Wan,150,Western,Central and Western,114.1483197,22.2850196
43,The Cupping Room,"Shop LG, The Centre Mark, 287-299 Queen's Road Central (Entrance on Cleverly Street), Sheung Wan",$51-$100,Italian,Western,Coffee Shop,,Sheung Wan,75,Western,Central and Western,114.1512383,22.2861358
44,Tenshu Tempura & Sashimi Restaurant,"Shop A, G/F, Lam's Building, 6-10 Kau U Fong, Sheung Wan",$401-$800,Japanese,Seafood,Sushi/Sashimi,,Sheung Wan,600,Asian,Central and Western,114.152916,22.284616
45,Lan Fong Yuen,"Shop 304D, 3/F, Shun Tak Centre, 168-200 Connaugh Road Central, Sheung Wan",Below $50,Hong Kong Style,Tea Restaurant,,,Sheung Wan,40,Hong Kong,Central and Western,114.1491375,22.2863943
46,Barista Jam,"Shop D, G/F, 126-128 Jervois Street, Sheung Wan",Below $50,Australian,Italian,Coffee Shop,,Sheung Wan,40,Western,Central and Western,114.150143,22.285594
47,The Kinnet Cafe,"3/F, 33 Hillier Street, Sheung Wan",$101-$200,Mediterranean,Western,Herbal Cuisine,Meatless Menu,Sheung Wan,300,Western,Central and Western,114.1509216,22.284786
48,Brew Bros Coffee,"Shop F2, LG/F, 33 Hillier Street, Sheung Wan",$51-$100,Western,Takeaway,Coffee Shop,Snack Shop & Deli,Sheung Wan,75,Western,Central and Western,114.1509216,22.284786
49,RosHome Kitchen,"Shop 2, G/F, Bonham Trade Centre, 50 Bonham Strand East, Sheung Wan",Below $50,Western,Bakery,Coffee Shop,,Sheung Wan,40,Western,Central and Western,114.1513267,22.2858159
50,ABC Kitchen,"Shop 7, Food Market, 1 Queen Street , Sheung Wan",$201-$400,Western,Pizza,Dai Pai Dong,,Sheung Wan,150,Western,Central and Western,114.1470024,22.2871841
51,K-Roll,"Shop 6A, G/F, Sen Fat Building, 6 Bonham Strand, Sheung Wan",$51-$100,Korean,Takeaway,,,Sheung Wan,75,Asian,Central and Western,114.1525194,22.285314
52,"the Roaster, SteP by SteP","G/F, 26 Upper Lascar Row, Sheung Wan",$51-$100,Western,Bakery,Dessert,Western Restaurant,Sheung Wan,75,Western,Central and Western,114.1497535,22.284793
53,Tokuzen Sushi,"G/F, 145 Connaught Road Central, Sheung Wan",$101-$200,Japanese,Ramen,Sushi/Sashimi,Skewer,Sheung Wan,300,Asian,Central and Western,114.1512761,22.287191
54,Sang Kee Congee Shop,"G/F, 7-9 Burd Street, Sheung Wan",Below $50,Guangdong,Congee,,,Sheung Wan,40,Hong Kong,Central and Western,114.1516918,22.2852983
55,Deli-O,"Shop 268A, 2/F, Shun Tak Centre, 168-200 Connaught Road Central, Sheung Wan",Below $50,Hong Kong Style,Fast Food,,,Sheung Wan,40,Hong Kong,Central and Western,114.1518293,22.2878529
56,MAN MO Cafe,"40 Upper Lascar Row, Sheung Wan",$201-$400,Guangdong,Western,Dim Sum,Wonton/Dumpling,Sheung Wan,150,Hong Kong,Central and Western,114.1496032,22.2849077
57,La Cantoche,"G/F, 227 Hollywood Road, Sheung Wan",$201-$400,French,Western Restaurant,,,Sheung Wan,150,Western,Central and Western,114.1485355,22.2854331
58,Tartes & Pop,"G/F, 2 Morrison Street, Sheung Wan",Below $50,French,Cake,Takeaway,Chocolate/Candy Shop,Sheung Wan,40,Western,Central and Western,114.1506445,22.2872506
59,Suzuki Cafe Company,"Shop 103-105, 1/F, Infinitus Plaza, 199 Des Voeux Road Central, Sheung Wan",$51-$100,Japanese,Taiwanese Drink,Soup,Meatless Menu,Sheung Wan,75,Asian,Central and Western,114.1537035,22.286389
60,Chuen Cheung Kui,"Shop C & 1/F, Alliance Building, 133 Connaught Road Central, Sheung Wan",$101-$200,Hakka,Stir-Fry,,,Sheung Wan,300,Chinese,Central and Western,114.1496,22.28797
61,Wing Lee Wai Wines LTD,"G/F, Wing Lee Wai Building ,124  Wing Lok Street, Sheung Wan",$51-$100,Hong Kong Style,Shanghai Hairy Crab,,,Sheung Wan,75,Hong Kong,Central and Western,114.1496598,22.2867531
62,For Kee Restaurant,"Shop J-K., 200 Hollywood Road, Sheung Wan",Below $50,Hong Kong Style,Tea Restaurant,,,Sheung Wan,40,Hong Kong,Central and Western,114.1479256,22.2852979
63,The Lot on Possession,"22 Possession Street, Sheung Wan",$101-$200,Italian,Pizza,Hamburger,Western Restaurant,Sheung Wan,300,Western,Central and Western,114.1481298,22.2857311
64,CLUB CHOW,"9/F, The Pemberton, 22-26 Bonham Strand, Sheung Wan",$201-$400,Italian,French,Western Restaurant,Bar,Sheung Wan,150,Western,Central and Western,114.1521281,22.2854991
65,Paper Stone Bakery,"Shop 4-5, G/F, FWD Financial Centre, 308 Des Voeux Road, Sheung Wan",Below $50,Western,Bakery,,,Sheung Wan,40,Western,Central and Western,114.1391221,22.2872579
66,Bun Cha Vietnamese,"Shop 1, G/F, King Ho Building, 41-49 Aberdeen Street, Soho, Sheung Wan",$101-$200,Vietnamese,Noodles/Rice Noodles,,,Sheung Wan,300,Asian,Central and Western,114.1491375,22.2863943
67,Ho Hak Shan Tung,"G/F., 17 Burd Street, Sheung Wan",Below $50,Shandong,Wonton/Dumpling,Stir-Fry,,Sheung Wan,40,Chinese,Central and Western,114.1514553,22.285218
68,Tokyo Milk Cheese Factory,"Shop 4-6, G/F, Western Market, 323 Des Voeux Road Central, Sheung Wan",$51-$100,Japanese,Cake,,,Sheung Wan,75,Asian,Central and Western,114.1503855,22.2873075
69,Table,"8/F, The Pemberton ,22-26 Bonham Strand East, Sheung Wan",$401-$800,Japanese,Western,International,Seafood,Sheung Wan,600,Asian,Central and Western,114.1521281,22.2854991
70,Green Veggie,"Room A-B, 1/F, Finance Building, 254 Des Vouex Road Central, Sheung Wan",$51-$100,International,Vegetarian,Meatless Menu,Western Restaurant,Sheung Wan,75,International,Central and Western,114.1519024,22.2864095
71,Jenny Bakery,"Ground Floor, 15 Wing Wo Street, Sheung Wan",$51-$100,Western,Bakery,,,Sheung Wan,75,Western,Central and Western,114.1537285,22.285103
72,Hana-Musubi,"Shop 204, 2/F, Grand Millennium Plaza, 181 Queen's Road Central, Sheung Wan",Below $50,Japanese,Sushi/Sashimi,Takeaway,,Sheung Wan,40,Asian,Central and Western,114.1533557,22.2851111
73,Yardbird,"33-35 Bridges Street, Sheung Wan",$401-$800,Japanese,,,,Sheung Wan,600,Asian,Central and Western,114.1505437,22.2835973
74,The Fingerprint,"G/F, 100 Jervois Street, Sheung Wan",$401-$800,Japanese,Sushi/Sashimi,Yoshoku,,Sheung Wan,600,Asian,Central and Western,114.1507608,22.2850963
75,Elephant Grounds,"(Inside Woaw Store), 11 Gough Street, Sheung Wan",Below $50,International,Coffee Shop,,,Sheung Wan,40,International,Central and Western,114.1527147,22.2841345
76,Chachawan,"G/F, 206 Hollywood Road, Sheung Wan",$201-$400,Thai,,,,Sheung Wan,150,Asian,Central and Western,114.1478785,22.2854676
77,Genki Sushi,"Shop 241, 2/F, Shun Tak Centre, 168-200 Connaught Road Central, Sheung Wan",$101-$200,Japanese,Sushi/Sashimi,Sushi Bar,,Sheung Wan,300,Asian,Central and Western,114.1518293,22.2878529
78,Sushi Shikon,"The Mercer, 29 Jervois Street, Sheung Wan",Above $801,Japanese,Sushi/Sashimi,,,Sheung Wan,1200,Asian,Central and Western,114.1518205,22.2853859
79,Dandy's Organic Cafe,"G/F, 108 Jervois Street, Sheung Wan",$101-$200,Western,Herbal Cuisine,Coffee Shop,,Sheung Wan,300,Western,Central and Western,114.1506306,22.2853069
80,Shirokuma Curry,"Shop 228-230, 2/F, Shun Tak Centre, 168-200 Connaught Road Central, Sheung Wan",$51-$100,Japanese,Curry,,,Sheung Wan,75,Asian,Central and Western,114.1518293,22.2878529
81,Urawa Japanese Restaurant,"G/F, Tung Hip Commercial Building, 244-252 Des Voeux Road Central, Sheung Wan",$201-$400,Japanese,Sushi/Sashimi,All-you-can-eat,,Sheung Wan,150,Asian,Central and Western,114.152163,22.2862864
82,Noodlemi,"G/F, 2 Bonham Strand, Sheung Wan",$51-$100,Vietnamese,Noodles/Rice Noodles,,,Sheung Wan,75,Asian,Central and Western,114.1526031,22.2852894
83,Homei,"Shop B, G/F, 22-24A Tai Ping San Street, Sheung Wan",Below $50,Western,Coffee Shop,,,Sheung Wan,40,Western,Central and Western,114.1484654,22.2846105
84,Cafe Deco Pizzeria,"Shop 3-4, G/F, Tower 125, 11 Po Yan Street, Sheung Wan",$101-$200,International,Pizza,Western Restaurant,,Sheung Wan,300,International,Central and Western,114.147411,22.2851939
85,Hei Lee Cakes Shop,__________3 ______,Below $50,Hong Kong Style,Bakery,,,Sheung Wan,40,Hong Kong,Central and Western,114.1180588,22.3520038
86,Das Gute,"G/F, Western Market, 323 Des Voeux Road Central, Sheung Wan",Below $50,Western,Bakery,Western Restaurant,,Sheung Wan,40,Western,Central and Western,114.1503855,22.2873075
87,Chan Kan Kee Chiu Chow Restaurant,"G/F, 11 Queen's Road West, Sheung Wan",$101-$200,Chiu Chow,Stir-Fry,,,Sheung Wan,300,Chinese,Central and Western,114.1485599,22.2863746
88,cha FOR TEA,"G/F, 10 Morrison Street, Sheung Wan",Below $50,Taiwan,Taiwanese Drink,,,Sheung Wan,40,Chinese,Central and Western,114.1502351,22.2859779
89,Gees Restaurant & Bar,"Shop G&H;, Hollywood Centre, 77-91 Queen's Road West, Sheung Wan",$201-$400,International,Wine/Cigar,Seafood,Western Restaurant,Sheung Wan,150,International,Central and Western,114.1471171,22.2865395
90,Little Burro,"1 Upper Station Street, Sheung Wan",$51-$100,Mexican,Western Restaurant,Fast Food,,Sheung Wan,75,Others,Central and Western,114.148621,22.2853066
91,Maxim's Cake Shop,"Shop 266, 2/F., Shun Tak Centre, 168-200 Connaught Road Centre, Sheung Wan",Below $50,Hong Kong Style,Bakery,,,Sheung Wan,40,Hong Kong,Central and Western,114.1491375,22.2863943
92,Coco Espresso,"G/F, 197 Queens Road Central, Sheung Wan",Below $50,Western,All Day Breakfast,Coffee Shop,Casual Drink,Sheung Wan,40,Western,Central and Western,114.1447,22.2871292
93,Three Monkeys,"G/F, 151-155 Hollywood Road, Sheung Wan",$401-$800,Japanese,Skewer,Bar,Skewer,Sheung Wan,600,Asian,Central and Western,114.1506001,22.2840666
94,Macau Restaurant,"Shop 270-273, 2/F Shun Tak Centre, 168-200 Connaught Rd Central, Sheung Wan",$51-$100,Hong Kong Style,Tea Restaurant,,,Sheung Wan,75,Hong Kong,Central and Western,114.1491375,22.2863943
95,Trattoria Queen Hollywood,"G/F, 258 Hollywood Road, Sheung Wan",$401-$800,Italian,Wine/Cigar,Seafood,Vegetarian,Sheung Wan,600,Western,Central and Western,114.146893,22.2862259
96,Munchies,"G/F, 4 Shin Hing Street, Sheung Wan",Below $50,Western,Bakery,Dessert,,Sheung Wan,40,Western,Central and Western,114.1522056,22.2840864
97,Wing Kei Noodle Shop,"G/F, 21 Sutherland Street, Sai Ying Pun, Sheung Wan",Below $50,Chiu Chow,Noodles/Rice Noodles,,,Sheung Wan,40,Chinese,Central and Western,114.146073,22.288161
98,She Wong Lam,__________13______,Below $50,Guangdong,Soup,Snake Soup,Stir-Fry,Sheung Wan,40,Hong Kong,Central and Western,114.1840527,22.2798182
99,Treasure Lake Seafood Restaurant,"1/F, Hongway Garden, 7 On Tai Street, Sheung Wan",$101-$200,Guangdong,Seafood,Dim Sum Restaurant,Food Wise Eateries,Sheung Wan,300,Hong Kong,Central and Western,114.1497306,22.2872027
100,Maxim's Palace Chinese Restaurant,"B13-B18, B/F, Shun Tak Centre, 168-200 Connaught Road Central, Sheung Wan",$101-$200,Guangdong,Dim Sum,Dim Sum Restaurant,,Sheung Wan,300,Hong Kong,Central and Western,114.1518293,22.2878529
101,Greenixs Korea Food Court,"G/F., No. 5 Jervois Street, Sheung Wan",$51-$100,Korean,Fast Food,,,Sheung Wan,75,Asian,Central and Western,114.1525782,22.2852784
102,238 Restaurant,"GF., 238 Hollywood Road, Sheung Wan",$201-$400,Dutch,French,Wine/Cigar,Seafood,Sheung Wan,150,Western,Central and Western,114.1472997,22.2858983
103,Noodle Supreme,"Shop 1, 22-24 Jervois Street, Sheung Wan",Below $50,Hong Kong Style,Food Stall Noodles,Snack Shop & Deli,,Sheung Wan,40,Hong Kong,Central and Western,114.1522627,22.2851777
104,Sheung Wan Canteen & Cafe,"G/F, 3 Burd Street, Sheung Wan",Below $50,Guangdong,Noodles/Rice Noodles,Chinese BBQ,Takeaway,Sheung Wan,40,Hong Kong,Central and Western,114.1517668,22.2853176
105,Yuet Lai Shun,"Shop C-G, G/F, Seaview Commercial Building, 21-24 Connaught Road West, Sheung Wan",$101-$200,Guangdong,Chinese BBQ,Stir-Fry,,Sheung Wan,300,Hong Kong,Central and Western,114.149144,22.2877449
106,La Porcina,"Shop C, G/F, 188 Hollywood Road, Sheung Wan",$101-$200,Spanish,Western,Seafood,Dessert,Sheung Wan,300,Western,Central and Western,114.1484575,22.2853462
107,Ronin,"8 On Wo Lane, Sheung Wan",$401-$800,Japanese,,,,Sheung Wan,600,Asian,Central and Western,114.1524161,22.2844695
108,Tak Shing Kitchen,"G/F, Wayson Commercial Building, 28 Connaught Road West, Sheung Wan",Below $50,Hong Kong Style,Noodles/Rice Noodles,Chinese BBQ,Tea Restaurant,Sheung Wan,40,Hong Kong,Central and Western,114.1488945,22.2878149
109,18 Grams,"Shop 2, G/F, Skyline Commercial Centre, 71-77 Wing Lok Street, Sheung Wan",$51-$100,Western,All Day Breakfast,Coffee Shop,,Sheung Wan,75,Western,Central and Western,114.1522156,22.2859264
110,Italian Tomato,"Shop G & H, G/F, Kai Tak Commercial Building, 317-321 Des Voeux Road Central, Sheung Wan",$51-$100,Italian,,,,Sheung Wan,75,Western,Central and Western,72.0772755,33.532918
111,Fetch Coffee,"G/F, 109 Jervois Street, Sheung Wan",$51-$100,Western,Bakery,Coffee Shop,,Sheung Wan,75,Western,Central and Western,114.1504429,22.2857641
112,Curry Box By Tim,"G/F., 16 Hillier Street, Sheung Wan",$51-$100,Middle Eastern,Curry,Upper-floor Cafe,,Sheung Wan,75,South Asian,Central and Western,114.1516389,22.2853314
113,Not A Burger,"Shop 8A, G/F, 8-12 Morrison Street, Sheung Wan",Below $50,Korean,Hamburger,Fast Food,,Sheung Wan,40,Asian,Central and Western,114.1501826,22.2861621
114,Sky Cuisine,"2-5/F, Loon Kee Building, 267-275 Des Voeux Road Central, Sheung Wan",$101-$200,Guangdong,Seafood,Dim Sum,Stir-Fry,Sheung Wan,300,Hong Kong,Central and Western,114.151824,22.286835
115,208 Duecento Otto,"G/F, 208 Hollywood Road, Sheung Wan",$401-$800,Italian,Pizza,Western Restaurant,Bar,Sheung Wan,600,Western,Central and Western,114.1477,22.285485
116,Zone-D Ristorante,"Shop 603, 6/F, Cheungs Building, 1-3 Wing Lok Street, Sheung Wan",$201-$400,Italian,Private Kitchen,,,Sheung Wan,150,Western,Central and Western,114.1538818,22.2856373
117,Cafe Bauhinia,"G/F, 23 New Market Street, Sheung Wan",$51-$100,Western,Sandwich,Salad,Cake,Sheung Wan,75,Western,Central and Western,114.1498319,22.2873378
118,Idea,"G/F, 48 Jervois Street, Sheung Wan",Below $50,Western Restaurant,,,,Sheung Wan,40,Western,Central and Western,114.152721,22.2852068
119,Fusion Gourmet,"1/F, The Pemberton, 22-26 Bonham Strand, Sheung Wan",$101-$200,International,Western Restaurant,,,Sheung Wan,300,International,Central and Western,114.1521281,22.2854991
120,Chang Long Shi Fu,"G/F., 11 Burd Street, Sheung Wan",Below $50,Hong Kong Style,Stir-Fry,,,Sheung Wan,40,Hong Kong,Central and Western,114.1513737,22.2854301
121,Oliver's Super Sandwiches,"Shop 239 - 240, 2/F, Shun Tak Centre, 168-200 Connaught Road Central, Sheung Wan",$51-$100,British,Bakery,Meatless Menu,Fast Food,Sheung Wan,75,Western,Central and Western,114.1518293,22.2878529
122,Gaia Ristorante,"G/F, Grand Millennium Plaza, 181 Queen's Road,, Sheung Wan",$201-$400,Italian,Pizza,Western Restaurant,Coffee Shop,Sheung Wan,150,Western,Central and Western,114.1536916,22.2851582
123,Ina Hotpot by Inagiku,"Shop A, G/F, Gold Union Commercial Building, 70-72 Connaught Road West, Sheung Wan",$201-$400,Japanese,Hot Pot,,,Sheung Wan,150,Asian,Central and Western,114.1467464,22.2881129
124,il Bel Paese,"G/F, 299 Queen's Road Central, Sheung Wan",$201-$400,Italian,Bakery,Wine/Cigar,Dessert,Sheung Wan,150,Western,Central and Western,114.15064,22.2849752
125,Euro Eatery,"Shop 103, Cheungs Building, 1-3 Wing Lok Street, Sheung Wan",$51-$100,Western,,,,Sheung Wan,75,Western,Central and Western,114.1538818,22.2856373
126,LOF10,"Flat B, 1 U Lam Terrace, Sheung Wan",Below $50,International,Bakery,Dessert,All Day Breakfast,Sheung Wan,40,International,Central and Western,114.1489395,22.2834309
127,URA Japanese Delicacy,"2/F, The Wellington, 198 Wellington Street, Sheung Wan",$201-$400,Japanese,Teppanyaki,Sushi/Sashimi,Bar,Sheung Wan,150,Asian,Central and Western,114.1560549,22.2807986
128,Nam Kee Spring Roll Noodle Co. Ltd,"Shop B, G/F, Hing Yip Commerical Centre, 272-284 Des Voeux Road Central, Sheung Wan",Below $50,Hong Kong Style,Noodles/Rice Noodles,Wonton/Dumpling,,Sheung Wan,40,Hong Kong,Central and Western,114.151479,22.2865246
129,Lucullus Gourmet Shop,"Koisk 1, 1/F, Infinitus Plaza, 199 Des Voeux Road Central, Sheung Wan",$51-$100,Western,Cake,Chocolate/Candy Shop,,Sheung Wan,75,Western,Central and Western,114.1537035,22.286389
130,Coffee Tree,"G/F, Hing Loong Building, 6A Wing Lok Street, Sheung Wan",$51-$100,Western,Takeaway,Western Restaurant,Coffee Shop,Sheung Wan,75,Western,Central and Western,114.1530534,22.2860054
131,Thai Good Taste,"Shop CF23, Cooked Food Centre, 2/F, Sheung Wan Municipal Services Building And Civic Centre, 345 Queen's Road Central, Sheung Wan",$51-$100,Thai,,,,Sheung Wan,75,Asian,Central and Western,114.1497606,22.2861929
132,Original Taste,"G/F, 14 Hiller Street, Sheung Wan",Below $50,Tea Restaurant,,,,Sheung Wan,40,Hong Kong,Central and Western,114.1516875,22.2853995
133,The Dutch Cheese and More,"G/F, 232 Queen__s Road Central, Sheung Wan",$101-$200,Dutch,Wine/Cigar,Western Restaurant,,Sheung Wan,300,Western,Central and Western,114.1730676,22.2745539
134,Glo Restaurant + Lounge,"1/F, Butterfly on Waterfront, 94 Connaught Road West, Sheung Wan, Sheung Wan",$201-$400,Western,Wine/Cigar,Steak House,Hotel Restaurant,Sheung Wan,150,Western,Central and Western,114.1491375,22.2863943
135,YUESIN,"20/F,Qualipak Tower, No.122 Connaught RD West, Sheung Wan",$201-$400,International,Herbal Cuisine,Private Kitchen,,Sheung Wan,150,International,Central and Western,114.1441464,22.2882739
136,Po's Atelier,"G/F, 62 Po Hing Fong, Sheung Wan",Below $50,Western,Bakery,Coffee Shop,,Sheung Wan,40,Western,Central and Western,114.148156,22.283828
137,Arome Bakery,"Shop 4, G/F, Golden Centre, 188 Des Voeux Road M, Sheung Wan",Below $50,Western,Bakery,,,Sheung Wan,40,Western,Central and Western,114.1491375,22.2863943
138,Woo Tung Yakiniku Dining Bar,"Shop F, G/F, Fu Fai Comm. Centre, 27 Hiller Street, Sheung Wan",$201-$400,Japanese,Roast Meat,,,Sheung Wan,150,Asian,Central and Western,114.1491375,22.2863943
139,y...NOT? Coffee Engineer,"Shop 5, G/F, Golden Centre, 188 Des Voeux Road Central, Sheung Wan",Below $50,Western,Cake,Takeaway,Coffee Shop,Sheung Wan,40,Western,Central and Western,114.1534815,22.2859518
140,Monsieur Chatte,"121 Bonham Strand, Sheung Wan",$51-$100,French,,,,Sheung Wan,75,Western,Central and Western,114.1505031,22.2862222
141,PHO 1 Vietnamese Restaurant,"Shop B, G/F, Arion Commerciai Centre, 2-12 Queen's Road West, Sheung Wan",Below $50,Vietnamese,Noodles/Rice Noodles,,,Sheung Wan,40,Asian,Central and Western,114.1483657,22.2863057
142,ShaKiYauHo,"Shop D, G/F., Fu Fai Commercial Centre, 27 Hillier Street, Sheung Wan",$51-$100,Japanese,Sushi/Sashimi,Takeaway,,Sheung Wan,75,Asian,Central and Western,114.1512376,22.2851701
143,Purple Tomato,"2 Jervois Street, Sheung Wan",Below $50,International,Takeaway,,,Sheung Wan,40,International,Central and Western,114.1526547,22.285079
144,McCafe,"G/F Enterance & 1/F, Loon Kee Building, 267-275 Des Voeux Road Central, Sheung Wan",Below $50,American,Bakery,Coffee Shop,,Sheung Wan,40,Western,Central and Western,44.1756548,15.3709734
145,The Mixing Bowl,"G/F, 5 Shin Hing Street, Sheung Wan",Below $50,Western,International,Bakery,Coffee Shop,Sheung Wan,40,Western,Central and Western,114.1522129,22.2840008
146,Old Place,"G/F, 138 Connaught Road Central, Sheung Wan",Below $50,Jingchuanhu,Hot Pot,Hot Chili Oil,Stir-Fry,Sheung Wan,40,Chinese,Central and Western,114.1433541,22.2883665
147,Hokkaido Dairy Farm Restaurant,"G/F, 8 Wing Lok Street, Sheung Wan, Sheung Wan",Below $50,Hong Kong Style,Dessert,Curry,Tea Restaurant,Sheung Wan,40,Hong Kong,Central and Western,114.1516985,22.2859926
148,Honeymoon Dessert,"Shop 4-8, G/F, Western Market, No. 323 Des Voeux Road, Sheung Wan",Below $50,Hong Kong Style,Dessert,Sweet Soup,,Sheung Wan,40,Hong Kong,Central and Western,114.1390025,22.2875567
149,McDonald's,"Shop 267, 2/F, Shun Tak Centre, 168-200 Connaught Road Central, Sheung Wan",Below $50,American,Hamburger,Fast Food,,Sheung Wan,40,Western,Central and Western,114.1518293,22.2878529
150,Petite Oyster,"G/F, 44 Sai Street, Sheung Wan",$201-$400,French,Western Restaurant,,,Sheung Wan,150,Western,Central and Western,114.1487834,22.2849039
151,Noodle and Dog,"237B Queen's Road, Sheung Wan",$51-$100,Hong Kong Style,American,Noodles/Rice Noodles,Takeaway,Sheung Wan,75,Hong Kong,Central and Western,114.17391,22.2744001
152,Crowd Restaurant,______________42__56__B__,Below $50,Hong Kong Style,Stir-Fry,,,Sheung Wan,40,Hong Kong,Central and Western,114.1928525,22.237195
153,Why 50,"Shop E, G/F, Fu Fai Commercial Centre, 27 Hillier Street, Sheung Wan",$51-$100,International,Sandwich,All Day Breakfast,Western Restaurant,Sheung Wan,75,International,Central and Western,114.1512376,22.2851701
154,Sun Yuen Restaurant,"G/F, 327-329 Queen's Road Central,, Sheung Wan",Below $50,Hong Kong Style,Chinese BBQ,Stir-Fry,Tea Restaurant,Sheung Wan,40,Hong Kong,Central and Western,114.1501448,22.2855997
155,Moon Palace,"Shop 3017, 3/F, Shun Tak Centre, 168-200 Connaught Road Central, Sheung Wan",$101-$200,Sichuan,Shanghai,Seafood,Fine Dried Seafood,Sheung Wan,300,Chinese,Central and Western,114.1518293,22.2878529
156,Fusion 5th Floor Friendly's Kitchen,"5/F, The Pemberton, 22-26 Bonham Strand East, Sheung Wan",$401-$800,International,Seafood,Western Restaurant,,Sheung Wan,600,International,Central and Western,114.1521281,22.2854991
157,Sushi Ginza Onodera,"Shop 1A,  Hollywood Centre, 77-91 Queen's Road West, Sheung Wan",Above $801,Japanese,Sushi/Sashimi,,,Sheung Wan,1200,Asian,Central and Western,114.1471171,22.2865395
158,Steam Cafe,"4/F, Si Toi Commercial Building, 62-63 Queen Street, Sheung Wan",$51-$100,Western,Western Restaurant,Coffee Shop,,Sheung Wan,75,Western,Central and Western,114.1470791,22.2880835
159,Bonheur,"6/F, The Pemberton, 22-26 Bonham Strand, Sheung Wan",$401-$800,French,Western Restaurant,,,Sheung Wan,600,Western,Central and Western,114.1521281,22.2854991
160,Chuk Yuen Seafood Restaurant,"G/F, 3 Connaught Road West, Sheung Wan",$201-$400,Guangdong,Seafood,Dim Sum,Stir-Fry,Sheung Wan,150,Hong Kong,Central and Western,114.1500824,22.287481
161,Cali-Mex,"G/F, 77 Wing Lok Street, Sheung Wan",$101-$200,American,Mexican,Takeaway,Western Restaurant,Sheung Wan,300,Western,Central and Western,114.1522086,22.2859739
162,Hana-Musubi,"Shop 231D, 2/F, Shun Tak Centre,168-200 Connaught Road, Sheung Wan",Below $50,Japanese,Sushi/Sashimi,Takeaway,,Sheung Wan,40,Asian,Central and Western,114.13845,22.287828
163,Mymy Caffe,"Room 401, Hing Lung Commercial Building, 68-74 Bonham Strand East, Sheung Wan",Below $50,Italian,Coffee Shop,,,Sheung Wan,40,Western,Central and Western,114.1507495,22.2859065
164,Shung Hing Chiu Chow Restaurant,"G/F, 33 Queen's Road West, Sheung Wan",$101-$200,Chiu Chow,Seafood,Stir-Fry,Group Dining,Sheung Wan,300,Chinese,Central and Western,114.1482725,22.2867815
165,Maxim's Cake Shop,"Shop SHW 6, Sheung Wan MTR Station, Sheung Wan",Below $50,Hong Kong Style,Bakery,,,Sheung Wan,40,Hong Kong,Central and Western,114.1491375,22.2863943
166,Sai Yung Kee,"G/F, 129 Bonham Strand, Sheung Wan",Below $50,Guangdong,Noodles/Rice Noodles,Wonton/Dumpling,,Sheung Wan,40,Hong Kong,Central and Western,114.1504852,22.2863658
167,Maxim's Hong Kong Day,"G/F, Sun House, 90 Connaught Road C, Sheung Wan",Below $50,Hong Kong Style,Tea Restaurant,,,Sheung Wan,40,Hong Kong,Central and Western,114.1541095,22.286128
168,Mrs. Pound,"G/F, 6 Pound Lane, Sheung Wan",$101-$200,Thai,Singaporean,Indonesian,Western Restaurant,Sheung Wan,300,Asian,Central and Western,114.1479822,22.2851151
169,FOODBOX,"G/F, 14 Bonham Strand, Sheung Wan",$51-$100,Western,Hamburger,Takeaway,,Sheung Wan,75,Western,Central and Western,114.1524241,22.2854323
170,Pacific Coffee Company,"Shop 101~102, 1/F, Infinitus Plaza, 199 Des Voeux Road, Sheung Wan",Below $50,Western,Salad,Cake,Coffee Shop,Sheung Wan,40,Western,Central and Western,114.1427782,22.287981
171,China Dragon Arts,"Shop A, G/F, Unionway Commercial Centre, 283 Queen's Road Central, Sheung Wan",Below $50,Hong Kong Style,Snack Shop & Deli,,,Sheung Wan,40,Hong Kong,Central and Western,114.1427683,22.2869279
172,Cafe Queen,"Shop A, G/F., Tern Centre, 237 Queens Road Central, Sheung Wan, Sheung Wan",Below $50,Italian,Western,Bakery,Coffee Shop,Sheung Wan,40,Western,Central and Western,114.1491375,22.2863943
173,Pasta Club,"G/F, 15 Burd Street, Sheung Wan",$51-$100,Italian,Dessert,,,Sheung Wan,75,Western,Central and Western,114.1514553,22.285218
174,Korean Garden Restaurant,"2/F, 247 Des Voeux Rd C,, Sheung Wan",$101-$200,Korean,,,,Sheung Wan,300,Asian,Central and Western,114.1413369,22.2880151
175,Thai Smile,"G/F, 80 Wing Lok Street, Sheung Wan",Below $50,Thai,Curry,Takeaway,,Sheung Wan,40,Asian,Central and Western,114.1511257,22.2863321
176,Mrs Fields Cookies,"Shop 10, MTR Station, Sheung Wan",Below $50,Western,Takeaway,,,Sheung Wan,40,Western,Central and Western,114.1491375,22.2863943
177,Harvester,________________________A-B__,$51-$100,International,Vegetarian,Stir-Fry,,Sheung Wan,75,International,Central and Western,114.174695,22.2783151
178,Arome Bakery,"Shop 232, 2/F, Shuk Tak Centre, 168-200 Connaught Road Central, Sheung Wan",Below $50,Western,Bakery,,,Sheung Wan,40,Western,Central and Western,114.1518293,22.2878529
179,Le Velo - The Baker,____________74-77____________________A__,Below $50,Western,Coffee Shop,,,Sheung Wan,40,Western,Central and Western,114.119859,22.3677374
180,Patisserie L,"Rm 503, 5/F, Cheung's Building, 1-3 Wing Lok Street, Sheung Wan",$51-$100,French,Cake,Coffee Shop,Upper-floor Cafe,Sheung Wan,75,Western,Central and Western,114.1538818,22.2856373
181,Fu Sing Shark Fin Seafood Restaurant,"1/F, Grand Millennium Plaza, 181 Queen's Road Central, Sheung Wan",$101-$200,Guangdong,Seafood,Fine Dried Seafood,Dim Sum,Sheung Wan,300,Hong Kong,Central and Western,114.1536916,22.2851582
182,Cookie Galerie,"G/F, 8 Jervois Street, Sheung Wan",$51-$100,Western,Bakery,,,Sheung Wan,75,Western,Central and Western,114.152721,22.2852068
183,Classified,"G/F, 108 Hollywood Road, Sheung Wan",$101-$200,Western,Meatless Menu,All Day Breakfast,Western Restaurant,Sheung Wan,300,Western,Central and Western,114.1507624,22.2838252
184,Golden Island,"G/F, 3 Jervois Street, Sheung Wan",Below $50,Hong Kong Style,,,,Sheung Wan,40,Hong Kong,Central and Western,114.1525782,22.2852784
185,Tin Lok Bakery,"G/F, 63 Wing Lok Street, Sheung Wan",Below $50,Hong Kong Style,Bakery,,,Sheung Wan,40,Hong Kong,Central and Western,114.1525619,22.2858139
186,Katong Laksa Prawn Mee,"G/F, No. 8 Ma Sha Street, Sheung Wan",$51-$100,Singaporean,Noodles/Rice Noodles,,,Sheung Wan,75,Asian,Central and Western,114.1630426,22.3301082
187,May May Restaurant,"44 Bonham Strand, Sheung Wan",Below $50,Hong Kong Style,Tea Restaurant,,,Sheung Wan,40,Hong Kong,Central and Western,114.1514837,22.2857332
188,Urban Park,"Shop 3-5, 2/F, Nan Fung Tower, 88 Connaught Road Central, Sheung Wan",$201-$400,Italian,International,Sandwich,Hamburger,Sheung Wan,150,Western,Central and Western,114.1457616,22.288263
189,Yumemiya,"Shop G & H, G/F, Kai Tak Commercial Building, 317-321 Des Voeux Road Central, Sheung Wan",$51-$100,Japanese,,,,Sheung Wan,75,Asian,Central and Western,72.0772755,33.532918
190,Juk Kin Baked Rice,"2 Mercer Street, Sheung Wan",Below $50,Hong Kong Style,Tea Restaurant,,,Sheung Wan,40,Hong Kong,Central and Western,114.1519781,22.2856624
191,Starbucks Coffee,"G/F, Finance Building, 254 Des Voeux Road Central, Sheung Wan",Below $50,American,Salad,Coffee Shop,Casual Drink,Sheung Wan,40,Western,Central and Western,114.1519024,22.2864095
192,NINOEN Japanese Take-Away Shop,"Shop C, G/F, Gold Shine Tower, 346-348 Queen's Road Central, Sheung Wan",Below $50,Japanese,Curry,Sushi/Sashimi,Skewer,Sheung Wan,40,Asian,Central and Western,114.1494005,22.2858094
193,UCC Ferie,"Units 206-207, 2/F., Low Block, Grand Millennium Plaza, 181 Queen's Road Central,, Sheung Wan",$101-$200,Western,Coffee Shop,Yoshoku,Casual Drink,Sheung Wan,300,Western,Central and Western,114.1533557,22.2851111
194,Starbucks Coffee,"Shop nos. G61-62, G/F., Midland Centre,328 Queen's Road West, Sheung Wan",Below $50,American,Salad,Coffee Shop,Casual Drink,Sheung Wan,40,Western,Central and Western,114.1413729,22.2869215
195,La Rotisserie,"G/F, 33 Hillier Street, Sheung Wan",$51-$100,French,Takeaway,,,Sheung Wan,75,Western,Central and Western,114.1509216,22.284786
196,Marks & Spencer Food Store Marks & Spencer,"Shop 206-209, 2/F., Shun Tak Centre, 200 Connaught Road Central, Sheung Wan",$51-$100,Western,International,Bakery,Ice Cream/yogurt,Sheung Wan,75,Western,Central and Western,114.1515269,22.28801
197,Triple King Cafe,"Room 203, 2/F, Cheung's Building, 1-3 Wing Lok Street, Sheung Wan",$51-$100,Western,Upper-floor Cafe,,,Sheung Wan,75,Western,Central and Western,114.1538818,22.2856373
198,Kin Kee Coffee,"Shop CF6, Cooked Food Centre, 2/F, Sheung Wan Municipal Services Building And Civic Centre, 345 Queen's Road Central, Sheung Wan",Below $50,Hong Kong Style,,,,Sheung Wan,40,Hong Kong,Central and Western,114.1497606,22.2861929
199,Fung Shing Restaurant,"G/F, Hongway Garden, 7 On Tai Street,, Sheung Wan",$101-$200,Guangdong,Shunde,Dim Sum,Dim Sum Restaurant,Sheung Wan,300,Hong Kong,Central and Western,114.1497306,22.2872027
200,Ying Kee Hotpot Seafood Restaurant,"G/F, 19 Wilmer Street, Sheung Wan",$101-$200,Guangdong,Hot Pot,Soup,Dim Sum,Sheung Wan,300,Hong Kong,Central and Western,114.145024,22.288247
201,Saffron Bakery Cafe,"G/F., 24 Square Street, Sheung Wan",Below $50,Western,Bakery,Coffee Shop,,Sheung Wan,40,Western,Central and Western,114.1494331,22.2842819
202,Just Coffee,"Shop B, G/F, 16 Tai Ping Shan Street, Sheung Wan",Below $50,Western,Bakery,Dessert,Coffee Shop,Sheung Wan,40,Western,Central and Western,114.1484654,22.2846105
203,Lee Fa Yuen Korea House Restaurant Ltd,"2/F, The Pemberton, 22-26 Bonham Strand, Sheung Wan",$101-$200,Korean,,,,Sheung Wan,300,Asian,Central and Western,114.1521281,22.2854991
204,Thai & Vietnam Cusine,"Shop CF4 Queen Street Market, 1 Queen Street, Sheung Wan",Below $50,Vietnamese,Thai,,,Sheung Wan,40,Asian,Central and Western,114.1470024,22.2871841
205,The Mandarin House,"8/F, Champion Building, 287-291 Des Voeux Road, Sheung Wan",$101-$200,Guangdong,Stir-Fry,Dim Sum Restaurant,Club House,Sheung Wan,300,Hong Kong,Central and Western,114.151283,22.2870809
206,West Villa Restaurant,"G/F, No. 16-20 Bonham Strand,, Sheung Wan",$201-$400,Guangdong,Dim Sum,Stir-Fry,Dim Sum Restaurant,Sheung Wan,150,Hong Kong,Central and Western,114.1522814,22.2853971
207,Mos Burger,"G/F., 338 Apartment , 338 Queen's Road Central, Sheung Wan",Below $50,Japanese,Hamburger,Fast Food,,Sheung Wan,40,Asian,Central and Western,114.1411645,22.2869285
208,The Blackstar Kitchen And cockails,"G/F, 81 Wing Lok Street, Sheung Wan",$101-$200,Western,Wine/Cigar,Western Restaurant,Bar,Sheung Wan,300,Western,Central and Western,114.1521201,22.2860468
209,Anything But Salads,"Shop B, G/F, 14 Tai Ping Shan Street, Sheung Wan",$51-$100,Western,Dessert,Ice Cream/yogurt,Cake,Sheung Wan,75,Western,Central and Western,114.1484654,22.2846105
210,VONA Bar,"G/F, 111 Queen's Road West, Sheung Wan",$101-$200,Western,Wine/Cigar,,,Sheung Wan,300,Western,Central and Western,114.1466564,22.2863368
211,La Sandwicherie,"G/F, Manhattan Avenue, 255 Queen's Road Central, Sheung Wan",$51-$100,French,Bakery,Takeaway,,Sheung Wan,75,Western,Central and Western,114.1512301,22.28464
212,Lao Fo Ye Restaurant,"G/F, 21-24 Connaught Road West, Sheung Wan",$201-$400,Guangdong,Hong Kong Style,Western,Stir-Fry,Sheung Wan,150,Hong Kong,Central and Western,114.149144,22.2877449
213,Hakodate Japanese Restaurant,"G/F, 15 Hillier Street, Sheung Wan",$101-$200,Japanese,Ramen,,,Sheung Wan,300,Asian,Central and Western,114.151475,22.285499
214,Pacific Coffee Company,"Shop nos 1 & 3-5, Hollywood Centre, 233 Hollywood Road, Sheung Wan",Below $50,Western,Salad,Cake,Coffee Shop,Sheung Wan,40,Western,Central and Western,-73.6060523,40.7807398
215,Oui French Private Kitchen,"4/F, Cheungs Building, 1-3 Wing Lok Street, Sheung Wan",$201-$400,French,,,,Sheung Wan,150,Western,Central and Western,114.1538818,22.2856373
216,Chautari Restaurant,"Shop CF6, Food Market, 1 Queen's Road, Sheung Wan",Below $50,Indian,,,,Sheung Wan,40,South Asian,Central and Western,114.1476807,22.2870208
217,Yoshinoya,"Shop 322, 3/F, Shun Tak Centre, 168-200 Connaugh Road Central, Sheung Wan",$51-$100,Japanese,Fast Food,,,Sheung Wan,75,Asian,Central and Western,114.1491375,22.2863943
218,Fairwood,"G/F,  China Insurance Group Building, Connaught Road, Sheung Wan",Below $50,Hong Kong Style,Fast Food,,,Sheung Wan,40,Hong Kong,Central and Western,114.1477139,22.2884175
219,Pacific Coffee Company,"Shop 278, 2/F Shun Tak Centre, 168-200 Connaught Road, Sheung Wan",Below $50,Western,Salad,Cake,Coffee Shop,Sheung Wan,40,Western,Central and Western,114.13845,22.287828
220,Hainan Restaurant,"G/F, 130-131 Connaught Road Central, Sheung Wan",Below $50,Singaporean,Curry,Tea Restaurant,,Sheung Wan,40,Asian,Central and Western,114.15193,22.287079
221,Ajisen Ramen,"Shop 231B, 2/F, Shun Tak Centre, 168-200 Connaught Rd, Sheung Wan",$51-$100,Japanese,Ramen,,,Sheung Wan,75,Asian,Central and Western,114.13845,22.287828
222,Cafe Okay,"Shop 3002-3&3005, Macau Square, 3/F, Shun Tak Centre, 168-200 Connaught Road Central, Sheung Wan",$51-$100,Western,Hamburger,,,Sheung Wan,75,Western,Central and Western,-79.0823418,36.7815202
223,Don Buri Kings,"G/F, Manhattan Avenue, 255 Queen's Road Central, Sheung Wan",$51-$100,Japanese,Takeaway,,,Sheung Wan,75,Asian,Central and Western,114.1512301,22.28464
224,ZOO,"G/F, 33 Jervois Street, Sheung Wan",$101-$200,Western,,,,Sheung Wan,300,Western,Central and Western,114.1518561,22.2850927
225,The Cottage Gastropub,"G/F, 87-89 Jervois Street (on Cleverly Street), Sheung Wan",$201-$400,British,American,Western Restaurant,Bar,Sheung Wan,150,Western,Central and Western,114.1512383,22.2861358
226,Western Papa,"G/F, 304-306 Des Voeux Road, Sheung Wan",$51-$100,Western,Western Restaurant,,,Sheung Wan,75,Western,Central and Western,114.1507549,22.286675
227,Simple Way,"G/F., 33 Wing Wo Street, Sheung Wan",$51-$100,Japanese,Udon,Yoshoku,,Sheung Wan,75,Asian,Central and Western,114.154028,22.285716
228,Orchid Padara Bakery,"Shop SHW2, Sheung Wan MTR Station, Sheung Wan",Below $50,Hong Kong Style,Bakery,,,Sheung Wan,40,Hong Kong,Central and Western,114.1491375,22.2863943
229,Bubba Gump,"Shop 304-305, 3/F, The Peak Tower, 128 Peak Road, The Peak",$201-$400,American,Seafood,Hamburger,Salad,The Peak,150,Western,Central and Western,114.1497747,22.2712961
230,Cafe Deco,"Shop 101&201,Levels 1 & 2, The Peak Galleria, 118 Peak Road, The Peak",$401-$800,Western,Meatless Menu,Western Restaurant,,The Peak,600,Western,Central and Western,144.9404893,-37.8409565
231,The Peak Lookout,"121 Peak Road, The Peak",$401-$800,International,BBQ,Western Restaurant,Special Occasion Dining,The Peak,600,International,Central and Western,114.1493835,22.2709975
232,Wildfire,"Shop 2, 1/F, The Peak Tower, 128 Peak Road, The Peak",$101-$200,Italian,Western,Wine/Cigar,Vegetarian,The Peak,300,Western,Central and Western,114.1497747,22.2712961
233,Tsui Wah Restaurant,"Shop 1A, G/F, The Peak Galleria, 118 Peak Road, The Peak",$51-$100,Hong Kong Style,Meatless Menu,Tea Restaurant,Food Wise Eateries,The Peak,75,Hong Kong,Central and Western,114.1496948,22.270435
234,H agen-Dazs,"Shop 2, G/F, Peak Galleria, 118 Peak Road, The Peak",$51-$100,Western,Ice Cream/yogurt,,,The Peak,75,Western,Central and Western,114.1496948,22.270435
235,Happy Lab,"Store 40, 1/F, Peak Galleria Shopping Centre, 118 Peak Road, The Peak",Below $50,Australian,Dessert,,,The Peak,40,Western,Central and Western,114.1496948,22.270435
236,Starbucks Coffee,"Shop 7, G/F, Peak Galleria, 118 Peak Road, Peak, The Peak",Below $50,American,Salad,Coffee Shop,Casual Drink,The Peak,40,Western,Central and Western,114.1587983,22.2632478
237,Spaghetti 360360,__________118__________2__20____,$101-$200,Italian,Western Restaurant,,,The Peak,300,Western,Central and Western,114.0469186,22.476064
238,Bao Dim Sin Seng,"Shop 10-10A, Level 2, The Peak Galleria, 118 Peak Road, The Peak",Below $50,Hong Kong Style,Chinese Buns,Snack Shop & Deli,,The Peak,40,Hong Kong,Central and Western,114.1496948,22.270435
239,K ssen 85,"L2, The Peak Galleria, 118 Peak Road, The Peak",Below $50,Western,Chocolate/Candy Shop,,,The Peak,40,Western,Central and Western,114.1499953,22.2703652
240,Tai Cheong Bakery,"Shop 19, 2/F, The Peak Galleria, 118 Peak Road, The Peak",Below $50,Hong Kong Style,Bakery,,,The Peak,40,Hong Kong,Central and Western,114.1496948,22.270435
241,Pho Yummee,"Shop 19-21, 1/F, Peak Galleria Shopping Centre, 118 Peak Raod, The Peak",Below $50,Vietnamese,Noodles/Rice Noodles,Herbal Cuisine,Outdoor,The Peak,40,Asian,Central and Western,114.1587983,22.2632478
242,La Madeleine De Proust,"1/F, The Peak Galleria, 118 Peak Road, The Peak",Below $50,Chocolate/Candy Shop,,,,The Peak,40,Others,Central and Western,114.1499953,22.2703652
243,McDonald's,"Shop 11, 2/F, Peak Galleria, Peak Road,, The Peak",Below $50,American,Hamburger,Fast Food,,The Peak,40,Western,Central and Western,114.1604659,22.2667852
244,Pacific Coffee Company,"Peak Tower, The Peak",Below $50,Western,Salad,Cake,Coffee Shop,The Peak,40,Western,Central and Western,114.150233,22.271121
245,D lifrance,"Shop 6, G/F, Peak Galleria, 118 Peak Road, Peak, The Peak",Below $50,French,Fast Food,Coffee Shop,,The Peak,40,Western,Central and Western,114.1587983,22.2632478
246,Cookie Galerie,"Shop 13,2/F., The Peak Galleria, 118 Peak Road, The Peak",$51-$100,Western,Bakery,,,The Peak,75,Western,Central and Western,114.1496948,22.270435
247,Mimi Desserts,"Shop G17 The Peak Tower, 128 Peak Road, The Peak",Below $50,Hong Kong Style,Dessert,,,The Peak,40,Hong Kong,Central and Western,114.1497747,22.2712961
248,Mak's Noodle,"Shop 1, G/F, The Peak Galleria, 118 Peak Road, The Peak",Below $50,Guangdong,Noodles/Rice Noodles,,,The Peak,40,Hong Kong,Central and Western,114.1496948,22.270435
249,Tien Yi,"ShopA-B,2/F-3/F Peak Tower,128 Mount Austin Road, The Peak",$201-$400,Guangdong,Stir-Fry,,,The Peak,150,Hong Kong,Central and Western,114.173564,22.3031651
250,Hong Kong Day,__________128________P102____,Below $50,Hong Kong Style,Taiwanese Drink,,,The Peak,40,Hong Kong,Central and Western,114.2182969,22.3127636
251,Marion Crepes,"Shop 210-210A, 2/F, Peak Galleria Shopping Centre, 118 Peak Raod, The Peak",Below $50,Japanese,Dessert,Ice Cream/yogurt,Snack Shop & Deli,The Peak,40,Asian,Central and Western,114.1587983,22.2632478
252,ISEE iSEE Handcrafted Icy Desserts,"G/F, Peak Galleria Shopping Centre, 118 Peak Raod, The Peak",Below $50,Western,Dessert,Ice Cream/yogurt,,The Peak,40,Western,Central and Western,114.1587983,22.2632478
253,Fauchon,"Shop 101 (inside Cafe Deco), Levels 1, The Peak Galleria, 118 Peak Road, The Peak",$51-$100,French,Bakery,Chocolate/Candy Shop,,The Peak,75,Western,Central and Western,114.1496948,22.270435
254,Godiva Chocolatier,__________128________G11____,$51-$100,Western,Chocolate/Candy Shop,,,The Peak,75,Western,Central and Western,114.2182969,22.3127636
255,O Bar,"G19, The Peak Tower, The Peak",Below $50,International,Takeaway,,,The Peak,40,International,Central and Western,114.1985084,22.2902604
256,The Sweet Dynasty,"Shop 1B, G/F., The Peak Galleria, 118 Peak Road, The Peak",$51-$100,Guangdong,Dessert,Congee,Dim Sum,The Peak,75,Hong Kong,Central and Western,114.1496948,22.270435
257,BURGER KING,"Shop 1, Level 1, The Peak Tower, 128 Peak Road, The Peak",Below $50,American,Hamburger,Fast Food,,The Peak,40,Western,Central and Western,114.1497747,22.2712961
258,Gino's Gelato,"Shop G18, Peak Tower, The Peak",Below $50,Italian,,,,The Peak,40,Western,Central and Western,114.1587983,22.2632478
259,Kyo Hachi Japanese Restaurant,"Shop 4, Level 2, The Peak Tower, The Peak",$101-$200,Japanese,Sushi/Sashimi,,,The Peak,300,Asian,Central and Western,114.1587983,22.2632478
260,Sing Heung Yuen,"2 Mei Lun Street, Central",Below $50,Hong Kong Style,Tea Restaurant,Dai Pai Dong,,Central,40,Hong Kong,Central and Western,114.15253,22.2838101
261,Espuma,"17/F, M88, Wellington Place, 2-8 Wellington Street, Central",$101-$200,Spanish,International,Dessert,Coffee Shop,Central,300,Western,Central and Western,114.1560549,22.2807986
262,Grill,"G/F, 17-19 D'Aguilar Street, Lan Kwai Fong, Central",Below $50,Thai,Skewer,Meatless Menu,Takeaway,Central,40,Asian,Central and Western,114.155283,22.2804909
263,Zenon Caf ,"G/F, 86 Wellington Street, Central",$101-$200,Western,All Day Breakfast,Coffee Shop,,Central,300,Western,Central and Western,114.1545466,22.2828033
264,Bistronomique Staunton,"G/F., 33 Staunton Street, SoHo, Central",$401-$800,French,Western Restaurant,,,Central,600,Western,Central and Western,114.1530309,22.2819421
265,Glasshouse,"Shop 4009, Level 4, IFC mall, 1Harbour View Street,, Central",$101-$200,Western,International,Western Restaurant,,Central,300,Western,Central and Western,114.1969222,22.2896692
266,Greyhound Cafe,"Shop 1082, 1/F, International Finance Centre Mall, 1 Harbour View Street, Central",$201-$400,Thai,Meatless Menu,Coffee Shop,,Central,150,Asian,Central and Western,114.1568459,22.2849128
267,Rang Mahal Authentic Indian Cuisine,"2/F, 118 Queen's Queen Road, Central",$101-$200,Indian,Western Restaurant,,,Central,300,South Asian,Central and Western,114.1397086,22.2866129
268,Metal Steak,"G/F & Cockloft, 41 Gough Street, Central",$101-$200,Japanese,Steak House,,,Central,300,Asian,Central and Western,12.0807203,50.8850706
269,Green Waffle Diner,"G/F,  Kar Ho Building, 35-39 Graham Street, Central",$101-$200,Western,American,Dessert,All Day Breakfast,Central,300,Western,Central and Western,114.1533449,22.2828617
270,Naked Gurume Gyarari,"1/F, 28 Elgin Street, Soho, Central",$201-$400,Japanese,Yoshoku,,,Central,150,Asian,Central and Western,114.1587983,22.2799907
271,Social Place,"2/F, The L.Place, No.139 Queen__s Road Central, Central",$101-$200,Guangdong,Dim Sum,Stir-Fry,,Central,300,Hong Kong,Central and Western,178.4211257,-18.112584
272,Chateau Aqua Oyster & Wine,"2/F, Hilltop Plaza, 49 Hollywood Road, Soho, Central",$101-$200,Western,Western Restaurant,,,Central,300,Western,Central and Western,114.1587983,22.2799907
273,Bread Street Kitchen & Bar,"Level M, LKF Hotel,33 Wyndham Street, Lan Kwai Fong, Central",$401-$800,British,Western,Hotel Restaurant,,Central,600,Western,Central and Western,114.155736,22.2808027
274,Lily & Bloom,"5 & 6/F, LKF Tower, 33 Wyndham Street, Lan Kwai Fong, Central",$401-$800,American,Western Restaurant,Oyster Bar,,Central,600,Western,Central and Western,-116.1137027,44.9114364
275,The Mandarin Cake Shop,"M/F, Mandarin Oriental Hong Kong, 5 Connaught Road, Central",$51-$100,Western,Bakery,Hotel Restaurant,,Central,75,Western,Central and Western,114.1593949,22.281939
276,La Vache!,"G/F, 48 Peel Street, Soho, Central",$201-$400,French,Steak House,,,Central,150,Western,Central and Western,114.1587983,22.2799907
277,Clipper Lounge,"M/F, Mandarin Oriental Hong Kong, 5 Connaught Road Central, Central",$401-$800,Western,Buffet,Hotel Restaurant,Oyster Bar,Central,600,Western,Central and Western,114.1593949,22.281939
278,Amber,"7/F, The Landmark Mandarin Oriental, 15 Queen's Road, Central",Above $801,French,Wine/Cigar,Meatless Menu,Fine Dining,Central,1200,Western,Central and Western,114.1577017,22.2809117
279,Check-In Taipei,"G/F., 27 Hollywood Road, Soho, Central",$101-$200,Taiwan,Bar,Tea House,,Central,300,Chinese,Central and Western,114.1528804,22.2830914
280,Godiva Chocolatier,"Shop 1029-30, 1/F, IFC Mall,No.1 Harbour View Street, Central",$51-$100,Western,Chocolate/Candy Shop,,,Central,75,Western,Central and Western,114.1577536,22.2845756
281,The Chairman,"G/F, 18 Kau U Fong, Central",$401-$800,Guangdong,Stir-Fry,,,Central,600,Hong Kong,Central and Western,114.1526372,22.284566
282,Wong Chi Kee,"Basement, 10-12 Stanley Street, Central",Below $50,Guangdong,Noodles/Rice Noodles,Congee,,Central,40,Hong Kong,Central and Western,114.1558235,22.2818905
283,Angelina Paris,"Shop 3031-3070/ 3025-3026, IFC, 1 Harbour View Street, Central",$101-$200,French,Bakery,Wine/Cigar,Dessert,Central,300,Western,Central and Western,114.1568459,22.2849128
284,Azure Restaurant Slash Bar,"29-30/F, Hotel LKF by Rhombus, 33 Wyndham Street, Lan Kwai Fong, Central",$401-$800,International,Meatless Menu,Western Restaurant,Hotel Restaurant,Central,600,International,Central and Western,114.155736,22.2808027
285,Kau Kee Restaurant,"G/F, 21 Gough Street, Central",Below $50,Guangdong,Noodles/Rice Noodles,,,Central,40,Hong Kong,Central and Western,114.1525895,22.2842266
286,Townhouse,"23/F, California Tower, 30-32 D'Aguilar Street, Lan Kwai Fong, Central",$101-$200,International,Western Restaurant,,,Central,300,International,Central and Western,114.155736,22.2808027
287,Garrett Popcorn,"Shop 1050, 1/F, IFC Mall, 1 Harbour View Street, Central",$51-$100,Western,Takeaway,Snack Shop & Deli,,Central,75,Western,Central and Western,114.1568459,22.2849128
288,Nagahama No. 1 RamenNo.1,"G/F, 14 Kau U Fong, Central",$51-$100,Japanese,Ramen,,,Central,75,Asian,Central and Western,114.1527657,22.2845368
289,Kung Lee,"G/F, 60 Hollywood Road, SOHO, Central",Below $50,Hong Kong Style,Herbal Tea,,,Central,40,Hong Kong,Central and Western,114.1528804,22.2830914
290,Common Room,"1/F, Wo On Building, 8-13 Wo On Lane, Central",$201-$400,Western,International,Wine/Cigar,Hamburger,Central,150,Western,Central and Western,114.155221,22.281621
291,Pierre Herm ,"Shop 1019C, Podium Level 1, International Finance Centre Mall, 1 Harbour View Street, Central",$101-$200,French,Dessert,Chocolate/Candy Shop,,Central,300,Western,Central and Western,114.1568459,22.2849128
292,Casa Lisboa Portuguese Restaurant & Bar,"8/F, Lan Kwai Fong Tower, 55 D'Aguilar Street, Lan Kwai Fong, Central",$401-$800,Portuguese,Wine/Cigar,Western Restaurant,Bar,Central,600,Western,Central and Western,114.155736,22.2808027
293,S2 Kitchen,"Shop A, G/F, 51 Wellington Street, Central",$201-$400,Japanese,Sushi/Sashimi,Skewer,Izakaya,Central,150,Asian,Central and Western,114.1549939,22.2826301
294,CIAK - In The Kitchen,"Shop 327-333, 3/F., The Landmark, 15 Queen's Road, Central",$201-$400,Italian,Bakery,Ice Cream/yogurt,Pizza,Central,150,Western,Central and Western,114.1579662,22.2805507
295,Caprice,"Podium 6, Four Seasons Hotel Hong Kong, 8 Finance Street, Central",Above $801,French,Fine Dining,Hotel Restaurant,Romantic Dining,Central,1200,Western,Central and Western,114.1583339,22.2851951
296,Le Salon De Thde Jo l Robuchon,"Shop 315, 3/F, The Landmark, 16 Des Voeux Road Central, Central",$101-$200,French,Bakery,Coffee Shop,Casual Drink,Central,300,Western,Central and Western,114.157618,22.281554
297,Ivan The Kozak,"G/F, 46-48 Cochrane Street, Central",$201-$400,Russian,Wine/Cigar,Western Restaurant,Romantic Dining,Central,150,Western,Central and Western,114.1540074,22.2822468
298,L'Atelier de Jo l Robuchon,"Shop 401, 4/F, The Landmark, 16 Des Voeux Road Central, Central",Above $801,French,Fine Dining,Western Restaurant,,Central,1200,Western,Central and Western,114.157618,22.281554
299,Maxim's Cake Shop,"Shop 3, G/F, Tak Shing House, 20 Des Voeux Road Central, Central",Below $50,Hong Kong Style,Bakery,,,Central,40,Hong Kong,Central and Western,114.157372,22.281958
300,Sevva,"25/F Prince's Building, 10 Chater Road, Central",Above $801,Western,Dessert,Fine Dining,Western Restaurant,Central,1200,Western,Central and Western,114.1592149,22.2811763
301,La Casa Bistro,"9/F 118 Queen's Road Central, Central",$201-$400,Italian,Western,Pizza,Western Restaurant,Central,150,Western,Central and Western,114.1587016,22.2803014
302,Lin Heung Tea House,"160-164 Wellington Street, Central",$101-$200,Guangdong,Noodles/Rice Noodles,Congee,Dim Sum,Central,300,Hong Kong,Central and Western,114.1534584,22.2841684
303,Sohofama,"Shop G09-G14, G/F, Staunton, PMQ, 35 Aberdeen Street, Central",$101-$200,Guangdong,Soup,Dim Sum,Organic Food,Central,300,Hong Kong,Central and Western,114.1524554,22.2836011
304,The Lounge,"Four Seasons Hotel Hong Kong, 8 Finance Street, Central",$101-$200,Western,Bar,Hotel Restaurant,Casual Drink,Central,300,Western,Central and Western,114.1565951,22.2866384
305,Ivy,"Shop 2075, 2/F, IFC, 1 Harbour View Street, Central",$401-$800,French,International,Wine/Cigar,Meatless Menu,Central,600,Western,Central and Western,114.1568459,22.2849128
306,Mott 32,"Basement, Standard Chartered Bank Building, 4-4A Des Voeux Road Central, Central",$401-$800,Guangdong,Fine Dining,Stir-Fry,,Central,600,Hong Kong,Central and Western,114.1590541,22.2803647
307,Amazake,"G/F, On Hing Building, 1 On Hing Terrace, Central",$101-$200,Japanese,Bar,,,Central,300,Asian,Central and Western,114.1565129,22.2805285
308,Cafe Causette,"M/F, Mandarin Oriental Hong Kong, 5 Connaught Road Central, Central",$201-$400,Western,Western Restaurant,Hotel Restaurant,Casual Drink,Central,150,Western,Central and Western,114.1593949,22.281939
309,MO Bar,"G/F, Landmark Mandarin Oriental Hotel, 15 Queen's Road, Central",$201-$400,International,Wine/Cigar,Western Restaurant,Bar,Central,150,International,Central and Western,114.1577017,22.2809117
310,CAFLANDMARK,"Shop No.107-108, 1/F, The Landmark, 16 Des Voeux Road Central,, Central",$201-$400,Western,Western Restaurant,Special Occasion Dining,,Central,150,Western,Central and Western,114.157618,22.281554
311,NOMNot Only Meatballs,"G/F, 1-5 Elgin Street, Soho, Central",$201-$400,Italian,Seafood,Pizza,Western Restaurant,Central,150,Western,Central and Western,114.1587983,22.2799907
312,Yung Kee Restaurant,"32-40 Wellington Street, Central",$201-$400,Guangdong,Chinese BBQ,Stir-Fry,Business Dining,Central,150,Hong Kong,Central and Western,114.1555785,22.2814816
313,Man Wah,"25/F, Mandarin Oriental Hong Kong, 5 Connaught Road Central, Central",Above $801,Guangdong,Dim Sum,Fine Dining,Stir-Fry,Central,1200,Hong Kong,Central and Western,114.1593949,22.281939
314,Ore-no Kappou by Ginza Okamoto,"6/F, California Tower, 30-32 D'Aguilar Street, Lan Kwai Fong, Central",$401-$800,Japanese,Sushi/Sashimi,Bar,Yoshoku,Central,600,Asian,Central and Western,114.155736,22.2808027
315,Holy Crab Bar and Restaurant,"3/F, Cosmos Building, 8-11 Lan Kwai Fong, Central",$201-$400,American,Seafood,Buffet,Western Restaurant,Central,150,Western,Central and Western,114.1556979,22.2806625
316,Pret A Manger,"Shop 1015, 1/F, IFC Mall,No.1 Harbour View Street, Central",$51-$100,British,Bakery,Meatless Menu,Coffee Shop,Central,75,Western,Central and Western,114.1577536,22.2845756
317,Loyal Dining,"66 Wellington Street, Central",$101-$200,Western,Meatless Menu,Western Restaurant,,Central,300,Western,Central and Western,114.155104,22.282113
318,Fofo by el Willy,"20/F, M88, Wellington Place, 2-8 Wellington Street, Central",$401-$800,Spanish,Meatless Menu,Western Restaurant,,Central,600,Western,Central and Western,114.1560549,22.2807986
319,Sogno Cafe+,"Flat 2D, 2/F Welley Building, 97 Wellington Street, Central",$51-$100,Western,Coffee Shop,Upper-floor Cafe,,Central,75,Western,Central and Western,114.1542815,22.2835935
320,Noble Spice,"7/F, Cheung Hing Commercial Bldg, 37 -43 Cochrane Street, Central",$101-$200,Indian,Nepalese,Pizza,Curry,Central,300,South Asian,Central and Western,114.153966,22.2827826
321,O'Casa,"G/F, 26-28 Gilman's Bazaar, Central",$51-$100,Taiwan,Coffee Shop,,,Central,75,Chinese,Central and Western,114.1542576,22.2850117
322,Shugetsu,"G/F, 5 Gough Street, Central",$51-$100,Japanese,Ramen,,,Central,75,Asian,Central and Western,114.1528755,22.2841703
323,Urban Bakery Works,"Room 322, 3/F, The Landmark, 12-16 Des Voeux Road Central, Central",Below $50,Western,Bakery,Dessert,Coffee Shop,Central,40,Western,Central and Western,114.1579288,22.281255
324,MANA! Fast Slow Food,"92 Wellington Street, Central",$51-$100,Western,Vegetarian,Dessert,Pizza,Central,75,Western,Central and Western,114.1545889,22.282914
325,Jashan Indian Cuisine,"1/F, Amber Lodge, 23 Hollywood Road, SOHO, Central",$101-$200,Indian,BBQ,Curry,Certified Halal Food,Central,300,South Asian,Central and Western,114.1587983,22.2799907
326,Mandarin Grill + Bar+,"Mandarin Oriental Hong Kong, 5 Connaught Road Central, Central",Above $801,Western,Fine Dining,Steak House,Western Restaurant,Central,1200,Western,Central and Western,114.1593949,22.281939
327,DK Cuppa Tea,"G/F, 16A Staunton Street, Soho, Central",$51-$100,Western,Coffee Shop,,,Central,75,Western,Central and Western,114.1530309,22.2819421
328,Lai Bun Fu,"5/F, 18 On Lan Street, Central",$401-$800,Guangdong,Fine Dried Seafood,Stir-Fry,,Central,600,Hong Kong,Central and Western,114.1568253,22.2806191
329,Fish and Meat,"2/F., 32 Wyndham street, Central",$201-$400,International,Seafood,Western Restaurant,,Central,150,International,Central and Western,114.1552966,22.2799145
330,Wing Lok Yuen Restaurant,"G/F, 19 Chiu Lung Street, Central",Below $50,Hong Kong Style,Tea Restaurant,,,Central,40,Hong Kong,Central and Western,114.1568803,22.2827476
331,French Window Brasserie and Bar,"Shop 3101, 3/F, Tower 2, IFC Mall, No.1 Harbour View Street, Central",$401-$800,French,Western Restaurant,Bar,Group Dining,Central,600,Western,Central and Western,114.1577536,22.2845756
332,Lung King Heen,"Podium 4, Four Seasons Hotel Hong Kong, 8 Finance Street, Central",Above $801,Guangdong,Fine Dining,Stir-Fry,Hotel Restaurant,Central,1200,Hong Kong,Central and Western,114.1583339,22.2851951
333,Brunch Club,"G/F, 70 Peel Street, Soho, Central",$101-$200,British,All Day Breakfast,Western Restaurant,,Central,300,Western,Central and Western,114.1587983,22.2799907
334,Chicha,"G/F, 26 Peel Street, Central",$401-$800,Peruvian,Western Restaurant,,,Central,600,Others,Central and Western,114.1532984,22.2829821
335,Bistecca Italian Steak House,"2/F, Grand Progress Building, 15 Lan Kwai Fong, Central",$401-$800,Italian,Meatless Menu,Steak House,,Central,600,Western,Central and Western,114.1554461,22.2804855
336,Little Bao,"G/F, 66 Staunton Street, Soho, Central",$201-$400,International,Hamburger,Western Restaurant,,Central,150,International,Central and Western,114.1530309,22.2819421
337,Big Fernand,"Shop 2017, Podium 2, IFC Mall , 8 Finance Street, Central",$101-$200,French,Hamburger,Western Restaurant,Fast Food,Central,300,Western,Central and Western,114.1583339,22.2851951
338,8Otto e Mezzo BOMBANA,"Shop 202, 2/F, Alexandra House, 16-20 Chater Road, Central",Above $801,Italian,Fine Dining,Western Restaurant,Romantic Dining,Central,1200,Western,Central and Western,114.1586388,22.2814434
339,Tsim Chai Kee Noodle,"Shop B, G/F Jade Centre, 98 Wellington Street, Central",Below $50,Guangdong,Noodles/Rice Noodles,,,Central,40,Hong Kong,Central and Western,114.1544666,22.2829689
340,Isono Eatery & Bar,"Shop H601-H608, 6 /F, Hollywood, PMQ, 35 Aberdeen Street, Central",$401-$800,Spanish,Mediterranean,Seafood,BBQ,Central,600,Western,Central and Western,114.1524554,22.2836011
341,Phoenix Sweets,"Unit S103, 1/F, Staunton, PMQ, 35 Aberdeen Street, Central",Below $50,Western,Bakery,,,Central,40,Western,Central and Western,114.1524554,22.2836011
342,Emack & Bolio's,"G/F, 26 Cochrane Street, Central",Below $50,American,Ice Cream/yogurt,,,Central,40,Western,Central and Western,114.154454,22.2831303
343,Torimen,"Shop 1-2, G/F, 1-5 Elgin Street, Soho, Central",$201-$400,Japanese,Ramen,Robatayaki,Skewer,Central,150,Asian,Central and Western,114.1587983,22.2799907
344,"Tim Ho Wan, the Dim-Sum Specialists","Shop 12A, L1/F, Hong Kong MTR Station, Central",$51-$100,Hong Kong Style,Dim Sum,Stir-Fry,,Central,75,Hong Kong,Central and Western,114.1587983,22.2799907
345,The Square,"4/F, Exchange Square II, Central",$201-$400,Guangdong,Dim Sum,Dim Sum Restaurant,,Central,150,Hong Kong,Central and Western,114.1583265,22.2837105
346,Ser Wong Fun,"G/F, 30 Cochrane Street, Central",$201-$400,Guangdong,Noodles/Rice Noodles,Soup,Congee,Central,150,Hong Kong,Central and Western,114.154192,22.2827531
347,Butao Ramen,"69 Wellington Street, Central",$51-$100,Japanese,Ramen,,,Central,75,Asian,Central and Western,114.154801,22.2828754
348,Zafran,"Basement, 43-55 Wyndham St., Central",$201-$400,Spanish,Western Restaurant,Bar,,Central,150,Western,Central and Western,114.154949,22.280903
349,Good BBQ,"Shop 2, G/F, 39 Queens Road Central, Central",Below $50,Guangdong,Hong Kong Style,Chinese BBQ,Takeaway,Central,40,Hong Kong,Central and Western,114.1587016,22.2803014
350,VeggieSF,"10/F, 11 Stanley Street, Central",$101-$200,Western,Vegetarian,Western Restaurant,,Central,300,Western,Central and Western,114.1558886,22.2818719
351,Le Port Parfum ,"Shop C, 6-10 Kau U Fong, Central",$201-$400,French,Seafood,Western Restaurant,,Central,150,Western,Central and Western,114.152916,22.284616
352,Holly Brown,"G/F, 22 Stanley Street, Central",$51-$100,Western,Bakery,Ice Cream/yogurt,Coffee Shop,Central,75,Western,Central and Western,114.1555615,22.2821105
353,Luk Yu Tea House,"G/F-3/F, 24 Stanley Street, Central",$201-$400,Guangdong,Dim Sum,Stir-Fry,Dim Sum Restaurant,Central,150,Hong Kong,Central and Western,114.1555066,22.2821825
354,Tate Dining Room & Bar,"G/F, 59 Elgin St, Soho, Central",Above $801,French,Fine Dining,Western Restaurant,,Central,1200,Western,Central and Western,114.1587983,22.2799907
355,Yat Lok Restaurant,"G/F, 34-38 Stanley Street, Central",Below $50,Hong Kong Style,Noodles/Rice Noodles,Tea Restaurant,,Central,40,Hong Kong,Central and Western,114.1552975,22.2824765
356,Bisque | Lobster & Champagne,"1/F, 1 Lan Kwai Fong, Central",$401-$800,Western,International,Seafood,Western Restaurant,Central,600,Western,Central and Western,114.1554086,22.2811931
357,Shake'em Buns,"UG/F, 76 Wellington Street, Central",$51-$100,American,Hamburger,,,Central,75,Western,Central and Western,114.1550436,22.2823205
358,Burger Circus,"G/F, 22 Hollywood Road, Soho, Central",$51-$100,American,Fast Food,,,Central,75,Western,Central and Western,114.1528804,22.2830914
359,Bungalow,"Shop 2, G/F, The Centrium, 60 Wyndham Street, Central, Central",$401-$800,French,Western Restaurant,Group Dining,Casual Drink,Central,600,Western,Central and Western,114.1587983,22.2799907
360,Le Salon De Thde Jo l Robuchon,"Shop 2045A, Podium Level 2, ifc mall, 8 Financial Street, Central",$101-$200,French,Bakery,Coffee Shop,,Central,300,Western,Central and Western,114.1587983,22.2799907
361,Ms B's Cakery,"39 Gough Street, Central",$201-$400,Western,Bakery,Dessert,,Central,150,Western,Central and Western,114.1521819,22.284282
362,Good Luck Thai Food Restaurant,"13 Wing Wah Lane, Lan Kwai Fong, Central",$101-$200,Thai,,,,Central,300,Asian,Central and Western,114.155736,22.2808027
363,Ole Spanish Restaurant,"1/F, Shun Ho Tower, 24-30 Ice House Street,, Central",$401-$800,Spanish,Seafood,Western Restaurant,Romantic Dining,Central,600,Western,Central and Western,114.1565059,22.2803265
364,Sift Dessert Bar,"G/F, 46 Graham Street, Soho, Central",$51-$100,Western,Dessert,,,Central,75,Western,Central and Western,114.1530743,22.282414
365,Hong Kong University Alumni Association,"Room 101, Yip Fung Building, 2 D'Aguilar Street, Central",$201-$400,Guangdong,Stir-Fry,Dim Sum Restaurant,Group Dining,Central,150,Hong Kong,Central and Western,114.1561333,22.2813539
366,Boomshack,"Shop B, G/F, Wo On Building, 8-12 Wo On Lane, Central",Below $50,Western,American,Vegetarian,Ice Cream/yogurt,Central,40,Western,Central and Western,114.155221,22.281621
367,Vasco Spanish Fine Dining,"Shop H701-H708, 7/F, Hollywood, PMQ, 35 Aberdeen Street, Central",Above $801,Spanish,Seafood,Fine Dining,Romantic Dining,Central,1200,Western,Central and Western,114.1524554,22.2836011
368,Panino Giusto,"Shop 3077, Podium Level Three, ifc mall, 8 Finance Street, Central",$51-$100,Italian,Dessert,Coffee Shop,,Central,75,Western,Central and Western,114.1583339,22.2851951
369,Bouchon Bistro Francais,"G/F, 49 Elgin Street, Soho, Central",$401-$800,French,Western Restaurant,,,Central,600,Western,Central and Western,114.1587983,22.2799907
370,The Boss,"LG/F, Peter Buliding, 58-62 Queen's Road Central, Central",$201-$400,Guangdong,Dim Sum,Stir-Fry,Business Dining,Central,150,Hong Kong,Central and Western,114.1557835,22.2823905
371,Open Kitchen,"Shop 1081, 1/F, ifc mall, Central, Hong Kong, Central",$101-$200,Western,Bakery,Wine/Cigar,Pizza,Central,300,Western,Central and Western,114.1587983,22.2799907
372,caffHABITthe table,"1/F, Tai Woo House, 1 Wo On Lane, Central",$101-$200,Italian,All Day Breakfast,Coffee Shop,Casual Drink,Central,300,Western,Central and Western,114.1554929,22.2812585
373,Cafe 8,"Roof, Hong Kong Maritime Museum, Pier 8, Central",$51-$100,American,Coffee Shop,Social Enterprise Restaurant,,Central,75,Western,Central and Western,114.1587983,22.2799907
374,HMV Kafe,"3/F., Entertainment Building, Queen's Road, Central",$51-$100,Western,Coffee Shop,Outdoor,,Central,75,Western,Central and Western,114.1564131,22.2814525
375,The Herbivores,"G/F, 35 Staunton Street, SOHO, Central",$101-$200,International,Vegetarian,Western Restaurant,,Central,300,International,Central and Western,114.1530309,22.2819421
376,Aberdeen Street Social,"G/F, JPC, PMQ, 35 Aberdeen Street, Central, Hong Kong, Central",$201-$400,British,Bakery,Dessert,Western Restaurant,Central,150,Western,Central and Western,114.1587983,22.2799907
377,Ronin Japanese Cuisine,"6/F, M88, Wellington Place, 2-8 Wellington Street, Central",$201-$400,Japanese,Sushi/Sashimi,,,Central,150,Asian,Central and Western,114.1560549,22.2807986
378,Showcase by Bread n Butter,"Shop HG01-HG05, G/F, Hollywood, PMQ, 35 Aberdeen Street, Central",$51-$100,French,Bakery,Dessert,Coffee Shop,Central,75,Western,Central and Western,114.1524554,22.2836011
379,Tai Ping Koon Restaurant,"G/F, No. 60 Stanley Street, Central",$201-$400,Western,Western Restaurant,,,Central,150,Western,Central and Western,114.154896,22.282951
380,SAMA HK,"G/F., 51A Gough Street, Central",$101-$200,Japanese,Curry,Yoshoku,,Central,300,Asian,Central and Western,114.1518342,22.2846425
381,Double D Burger,"Shop E, G/F, Duke Wellington House, 22 Wellington Street, Lan Kwai Fong, Central",$51-$100,Western,American,,,Central,75,Western,Central and Western,114.155736,22.2808027
382,Watermark,"Shop L, Central Pier 7, Top Level, Star Ferry, Central",$401-$800,Western,Seafood,Buffet,Western Restaurant,Central,600,Western,Central and Western,114.1587983,22.2799907
383,Hakata Ippudo,"3/F, Century Square, 1-13 D'Aguilar Street, Central",$101-$200,Japanese,Ramen,Food Wise Eateries,,Central,300,Asian,Central and Western,114.1559279,22.2815623
384,Lobster Bobo by Eddy,"Shop A, G/F, Haleson Building, 1 Jubilee Street, Central",$51-$100,Hong Kong Style,Snack Shop & Deli,,,Central,75,Hong Kong,Central and Western,114.1548239,22.284145
385,Mori Sushi,"G/F, 28 Graham Street, Central",$201-$400,Japanese,Sushi/Sashimi,,,Central,150,Asian,Central and Western,114.1536287,22.283063
386,JANG,"18/F, The L.Place, 139 Queen's Road, Central",$201-$400,Korean,,,,Central,150,Asian,Central and Western,114.1729666,22.2746296
387,Xia Fei Society Shanghaiese Cuisine,"4/F, Century Square, 1-13 D'Aguilar Street, Central",$101-$200,Shanghai,Seafood,Herbal Cuisine,Dim Sum,Central,300,Chinese,Central and Western,114.1559279,22.2815623
388,Kee Wah,"Shop 1018B, 1/F, Tower One,IFC Mall,1 Harbour View Street, Central",Below $50,Hong Kong Style,Bakery,Chinese Cake,,Central,40,Hong Kong,Central and Western,114.1568459,22.2849128
389,Oddies,"G/F, 45 Gough Street, Central",Below $50,Hong Kong Style,Western,Dessert,Ice Cream/yogurt,Central,40,Hong Kong,Central and Western,114.152076,22.284372
390,Bep Vietnamese Kitchen,"L/G, 9-11 Stauton Street, Soho, Central",$101-$200,Vietnamese,,,,Central,300,Asian,Central and Western,114.1530309,22.2819421
391,Restoration,"1/F, 63 Wyndham Street, Central",$201-$400,Western,American,Steak House,Western Restaurant,Central,150,Western,Central and Western,114.154962,22.2814015
392,Le D me de Cristal,"2-3/F, The Galleia, 9 Queen's Road Central, Hong Kong, Central",Above $801,French,Western Restaurant,Bar,Romantic Dining,Central,1200,Western,Central and Western,114.1587016,22.2803014
393,Swiss Cafe,"No.12-16 Li Yuen Street West, Central",Below $50,Hong Kong Style,Tea Restaurant,Casual Drink,,Central,40,Hong Kong,Central and Western,114.156043,22.2831074
394,Mesa 15,"6/F, Grand Progress Building, 15-16 Lan Kwai Fong, Central",$401-$800,Spanish,Western Restaurant,,,Central,600,Western,Central and Western,114.1554461,22.2804855
395,Yoshinoya,"G/F, Grand Bldg, 15-18 Connaught Rd,, Central",$51-$100,Japanese,Fast Food,,,Central,75,Asian,Central and Western,114.157594,22.2829771
396,Common Ground,"G/F, 19 Shing Wong Street, Central",$51-$100,Western,Coffee Shop,,,Central,75,Western,Central and Western,114.1510424,22.2832409
397,Isola Bar & Grill,"Shop 3071-3075, 3/F &  Shop 4011, 4/F, IFC Mall, 1 Harbour View Street, Central",$201-$400,Italian,Pizza,Western Restaurant,Romantic Dining,Central,150,Western,Central and Western,-79.081392,36.7819694
398,Chopsticks Kee,"Shop A1, Khuan Ying Commercial Building, 85-89 Wellington Street, Central",Below $50,Hong Kong Style,Food Stall Noodles,Tea Restaurant,,Central,40,Hong Kong,Central and Western,114.1544395,22.2833345
399,Ozawa Japanese Restaurant,"Shop C, G/F, 49 Graham Street, Soho, Central",$201-$400,Japanese,Sushi/Sashimi,,,Central,150,Asian,Central and Western,114.1587983,22.2799907
400,Armani / Aqua,"Shop 204-205, 2/F, Chater House, 8 Connaught Road Central, Central",$401-$800,Japanese,Italian,,,Central,600,Asian,Central and Western,114.1585018,22.2822479
401,Les FilsMaman,"LG/F, 75 Hollywood Road, Soho, Central",$401-$800,French,Western Restaurant,,,Central,600,Western,Central and Western,114.1587983,22.2799907
402,Lady M,"Shop 2096A, 2/F, IFC, 1 Harbour View Street, Central",$51-$100,Western,Bakery,Coffee Shop,,Central,75,Western,Central and Western,114.1568459,22.2849128
403,Linguini Fini,"G/F, 49 Elgin Street, Soho, Central",$201-$400,Italian,American,Meatless Menu,Western Restaurant,Central,150,Western,Central and Western,114.1587983,22.2799907
404,Old Town Restaurant,"11/F, The Loop, Wellington Street 33, Central",$101-$200,Singaporean,,,,Central,300,Asian,Central and Western,114.1554544,22.2820371
405,Alchemy Restaurant & Lounge,"G/F, 16 Arbuthnot Road, Central",$201-$400,French,International,Western Restaurant,,Central,150,Western,Central and Western,114.154787,22.2798855
406,sen-ryo,"3/F, Century Square, 1-13 D'Aguilar Street, Central",$201-$400,Japanese,Sushi/Sashimi,Sushi Bar,,Central,150,Asian,Central and Western,114.1559279,22.2815623
407,Pret A Manger,"Shop W6, Central MTR Station, Central",$51-$100,British,Bakery,Meatless Menu,Coffee Shop,Central,75,Western,Central and Western,114.1587983,22.2799907
408,Iberico & Co.,"G/F, 18 Shelley's Street, Soho, Central",$201-$400,Spanish,Western Restaurant,Bar,,Central,150,Western,Central and Western,114.1512736,22.280014
409,Bee Two French Baguette & Coffee,"G/F, 166 Wellington Street, Central",$51-$100,Western,Coffee Shop,Casual Drink,,Central,75,Western,Central and Western,114.1532866,22.2844157
410,Duddell's,"Levels 3 & 4, Shanghai Tang Mansion, 1 Duddell Street, Central",$401-$800,Guangdong,Stir-Fry,,,Central,600,Hong Kong,Central and Western,114.1549569,22.2994334
411,Starbucks Coffee,"Shop 2097-2098, L2, International Finance Centre Mall, 1 Harbour View Street, Central",Below $50,American,Salad,Coffee Shop,Casual Drink,Central,40,Western,Central and Western,114.1568459,22.2849128
412,Sichuan House,"7/F, M88, Wellington Place, 2-8 Wellington Street, Central",$201-$400,Sichuan,Meatless Menu,Stir-Fry,,Central,150,Chinese,Central and Western,114.1560549,22.2807986
413,Carbone Hong Kong,"9/F, Lan Kwai Fong Tower, 33 Wyndham Street, Lan Kwai Fong, Central",$401-$800,Italian,Western Restaurant,,,Central,600,Western,Central and Western,114.155736,22.2808027
414,Hanagushi Yakitori Japanese Restaurant,"8/F, M88, Wellington Place, 2-8 Wellington Street, Central",$101-$200,Japanese,Vegetarian,Teppanyaki,Sushi/Sashimi,Central,300,Asian,Central and Western,114.1560549,22.2807986
415,Indonesian Restaurant 19681968,"5/F, The L.Place, 139 Queen's Road Central, Central",$101-$200,Indonesian,Meatless Menu,Western Restaurant,,Central,300,Asian,Central and Western,178.4211257,-18.112584
416,GOGYO,"Shop 3020, Level Three IFC Mall, 1 Harbour View Street, Central",$101-$200,Japanese,Ramen,Food Wise Eateries,,Central,300,Asian,Central and Western,114.1568459,22.2849128
417,Yue Hing,"Shop 82, Stanley Street, Central",Below $50,Hong Kong Style,Dai Pai Dong,,,Central,40,Hong Kong,Central and Western,114.1544756,22.283575
418,Inagiku Japanese Restaurant,"Podium 4, Four Seasons Hotel Hong Kong, 8 Finance Street, Central",Above $801,Japanese,Teppanyaki,Sushi/Sashimi,Hotel Restaurant,Central,1200,Asian,Central and Western,114.1583339,22.2851951
419,Classified,"Shop 313, 3/F, The Forum, 8 Connaught Road, Central",$101-$200,Western,Meatless Menu,All Day Breakfast,Western Restaurant,Central,300,Western,Central and Western,114.1585018,22.2822479
420,Porterhouse by Laris,"7/F, California Tower, 30-32 D'Aguilar Street, Lan Kwai Fong, Central",$201-$400,Australian,Steak House,,,Central,150,Western,Central and Western,114.155736,22.2808027
421,niji bistro,"2/F, 11 Stanley Street, Central",$101-$200,Japanese,Yoshoku,,,Central,300,Asian,Central and Western,114.1557857,22.2822836
422,SunnyHills,"G/F, 8 Chancery Lane, Central",$101-$200,Taiwan,Snack Shop & Deli,,,Central,300,Chinese,Central and Western,114.1533693,22.2807561
423,Jollibee,"Shop z4, G/F, Eurotrade Centre, 13 Connaught Rd., Central",Below $50,American,Fast Food,,,Central,40,Western,Central and Western,114.157597,22.282784
424,Nam Kee Spring Roll Noodle Co. Ltd,"G/F, 66-72 Stanley Street, Central",Below $50,Hong Kong Style,Noodles/Rice Noodles,Wonton/Dumpling,,Central,40,Hong Kong,Central and Western,114.1547661,22.283099
425,Celebrity Cuisine,"1/F, Lan Kwai Fong Hotel, 3 Kau U Fong, Central",$401-$800,Guangdong,Stir-Fry,,,Central,600,Hong Kong,Central and Western,114.15312,22.2842899
426,A La Bakery,"G/F., Two Chinachem Plaza, 68 Connaught Road Central, Central",Below $50,French,Western,Bakery,,Central,40,Western,Central and Western,114.1553946,22.2855071
427,Yorkshire Pudding,"G/F, 6&8 Staunton Street, SOHO, Central",$201-$400,British,Western Restaurant,,,Central,150,Western,Central and Western,-116.1136349,44.9114319
428,Dream Tofa,"Shop 6, G/D., 1 Lyndhurst Terrace, Central",Below $50,Hong Kong Style,Dessert,Curry,Takeaway,Central,40,Hong Kong,Central and Western,114.1540429,22.2825136
429,Mak's Noodle,"G/F, 77 Wellington Street, Central",Below $50,Guangdong,Noodles/Rice Noodles,,,Central,40,Hong Kong,Central and Western,114.1545196,22.2830095
430,Tartine,"2-3/F, 38 Lyndhurst Terrace, Central",$201-$400,French,,,,Central,150,Western,Central and Western,114.1547836,22.2823735
431,Cuisine Cuisine,"Shop 3101, 3/F, IFC Mall, 1 Harbour View Street, Central",$201-$400,Guangdong,Fine Dried Seafood,Dim Sum,Stir-Fry,Central,150,Hong Kong,Central and Western,114.1568459,22.2849128
432,Law Fu Kee,"G/F, 142 Queen's Rd C,, Central",Below $50,Guangdong,Noodles/Rice Noodles,Congee,,Central,40,Hong Kong,Central and Western,121.0232367,14.6765371
433,Lan Fong Yuen,"2 Gage Street, Central",Below $50,Hong Kong Style,Noodles/Rice Noodles,Tea Restaurant,,Central,40,Hong Kong,Central and Western,114.1537155,22.2827255
434,Gianni's Trattoria Italiana,"1/F, The Elgin, 51 Elgin Street, Soho, Central",$201-$400,Italian,Wine/Cigar,Seafood,Western Restaurant,Central,150,Western,Central and Western,114.1587983,22.2799907
435,Tai Cheong Bakery,"G/F, 35 Lyndhurst Terrace, Central",Below $50,Hong Kong Style,Bakery,,,Central,40,Hong Kong,Central and Western,114.1535289,22.282495
436,Mr Simms Olde Sweet Shoppe,"G/F, 37 Lyndhurst Terrace, Central",Below $50,British,Chocolate/Candy Shop,,,Central,40,Western,Central and Western,114.1534467,22.2824988
437,"Fatina & Chefo, Eat & Play","Shop S112, 1/F, Staunton, PMQ, 35 Aberdeen Street, Central",$51-$100,Western,Coffee Shop,,,Central,75,Western,Central and Western,114.1524554,22.2836011
438,Yum Cha,"Shop 1-2, 2/F, Nan Fung Tower, 88 Connaught Road Central, Central",$101-$200,Guangdong,Dim Sum,Chinese Buns,Stir-Fry,Central,300,Hong Kong,Central and Western,114.1544537,22.286022
439,Viral Fusion,"13/F, Pearl Oriental House,60 Stanley Street, Central",$401-$800,International,Private Kitchen,,,Central,600,International,Central and Western,114.154896,22.282951
440,Gradini Ristorante Italiano,"Lobby Level, The Pottinger Hong Kong, 74 Queens Road (Hotel Main Entrance: 21 Stanley Street), Central",$401-$800,Italian,Seafood,Western Restaurant,Hotel Restaurant,Central,600,Western,Central and Western,114.155389,22.2827891
441,White Beard Fish n Chips,"Pier 7, G/F, Central Piers, Central",$51-$100,British,Western,Fast Food,,Central,75,Western,Central and Western,114.1649612,22.2905609
442,Popsy Modern Kitchen,"5/F, The Wellington, 198 Wellington Street, Central",$401-$800,Western,International,Seafood,Meatless Menu,Central,600,Western,Central and Western,114.1560549,22.2807986
443,Sushi Kuu,"1/F, M88, Wellington Place, 2-8 Wellington Street, Central",$201-$400,Japanese,Sushi/Sashimi,,,Central,150,Asian,Central and Western,114.1560549,22.2807986
444,Tsui Wah Restaurant,"G-2/F, 15-19 Wellington Street, Central",$51-$100,Hong Kong Style,Meatless Menu,Tea Restaurant,Food Wise Eateries,Central,75,Hong Kong,Central and Western,114.155615,22.2818
445,SAAM,"51 Graham Street, Soho, Central",$401-$800,International,Western Restaurant,,,Central,600,International,Central and Western,114.1526742,22.2822222
446,Leaf Dessert,"2 Elgin Street, SOHO, Central",Below $50,Hong Kong Style,Dessert,Dai Pai Dong,,Central,40,Hong Kong,Central and Western,-0.1862202,51.5304311
447,Cafde Paris,"23 Elgin Street, Soho, Central",$201-$400,French,Western Restaurant,Romantic Dining,Special Occasion Dining,Central,150,Western,Central and Western,-0.1857147,51.5306182
448,Secrets 5F,"5/F, California Tower, 30-32 D'Aguilar Street, Lan Kwai Fong, Central",$101-$200,Western,Wine/Cigar,Bar,Clubbing,Central,300,Western,Central and Western,114.155736,22.2808027
449,Ch m Ch m,"G/F, 58-60 Peel Street, Soho, Central",$201-$400,Vietnamese,Bar,Snack Shop & Deli,,Central,150,Asian,Central and Western,114.1587983,22.2799907
450,Alice Wild Luscious,"Shop H02-03, 1/F, Hollywood Building, PMQ, 35 Aberdeen Street, Central",$51-$100,American,Bakery,Coffee Shop,,Central,75,Western,Central and Western,114.1524554,22.2836011
451,Marks & Spencer - Food Department Marks & Spencer -,"Basement, Central Tower, 22-28 Queen's Road Central, Central",$51-$100,Western,International,Bakery,Ice Cream/yogurt,Central,75,Western,Central and Western,114.1568023,22.2811366
452,121BC,"G/F., 42-44 Peel Street, Soho, Central",$201-$400,Italian,Western Restaurant,Bar,,Central,150,Western,Central and Western,114.1587983,22.2799907
453,The Diner,"G/F, Shiu King Court, 4-8 Arbuthnot Road, Central",$201-$400,American,Vegetarian,Hamburger,Western Restaurant,Central,150,Western,Central and Western,114.1546815,22.280123
454,Miso,"Shop 15, Basement, Jardine House,1 Connaught Place, Central",$401-$800,Japanese,Ramen,Teppanyaki,Sushi/Sashimi,Central,600,Asian,Central and Western,114.1591644,22.2830124
455,Marks & Spencer Food Store Marks & Spencer,"1/F Kinwick Centre 32 Hollywood Road, SOHO, Central",$51-$100,Western,International,Bakery,Dessert,Central,75,Western,Central and Western,114.1587983,22.2799907
456,Seoul Bros,"G/F, 66 Hollywood Road, Soho, Central",$51-$100,Korean,,,,Central,75,Asian,Central and Western,114.1528804,22.2830914
457,Bo-Lo'GNE,"G/F & M/F 52 Gage Street, Central",Below $50,Western,Bakery,Yoshoku,,Central,40,Western,Central and Western,12.0807203,50.8850706
458,Patisserie Yamakawa,"Citysuper, Tower 2 ,IFC Mall,No.1 Harbour View Street, Central",Below $50,Japanese,Bakery,,,Central,40,Asian,Central and Western,114.1577536,22.2845756
459,Yo Mama,"Shop 1061, 1/F, Tower Two, IFC Mall, Harbour View Street, Central",Below $50,Italian,Ice Cream/yogurt,,,Central,40,Western,Central and Western,114.1577536,22.2845756
460,Shui Kee,"2 Gutzlaff Street,, Central",Below $50,Hong Kong Style,Noodles/Rice Noodles,Dai Pai Dong,,Central,40,Hong Kong,Central and Western,114.154085,22.283142
461,Steak Frites by The Butchers Club,"G/F, 52-56 Staunton Street, Soho, Central",$401-$800,Western,Steak House,,,Central,600,Western,Central and Western,114.1530309,22.2819421
462,Westwood Carvery,"G/F, 2 Wo On Lane, Lan Kwai Fong, Central",$201-$400,American,Wine/Cigar,Steak House,,Central,150,Western,Central and Western,114.155736,22.2808027
463,Kobab & Koshi,"G/F, Luen On House, 6 Wo On Lane, Central",$101-$200,Korean,International,Pizza,Hamburger,Central,300,Asian,Central and Western,114.155326,22.2814875
464,Maxim's Cake Shop,"Shop HOK 29, Hong Kong MTR Station, Central",Below $50,Hong Kong Style,Bakery,,,Central,40,Hong Kong,Central and Western,114.1587983,22.2799907
465,Starbucks Coffee,"Floor M2, Baskerville House, 13 Duddell Street, , Central",Below $50,American,Salad,Coffee Shop,Casual Drink,Central,40,Western,Central and Western,114.1567001,22.2798234
466,The Butchers Club Burger,"Shop A, G/F, Sun Wise Building, 112-114 Wellington Street, Central",$101-$200,American,Hamburger,Fast Food,Bar,Central,300,Western,Central and Western,114.1541846,22.283248
467,Lok Heung Yuen Coffee Shop,"G/F, No.8-12 Gilman's Bazaar, Central",Below $50,Hong Kong Style,Tea Restaurant,,,Central,40,Hong Kong,Central and Western,114.1540576,22.2847494
468,MAMA SAN by Will Meyrick,"1/F, 46 Wyndham Street, Central",$101-$200,Indonesian,International,,,Central,300,Asian,Central and Western,114.1549482,22.2802468
469,Maxim's Cake Shop,"Shop CEN E3, Central MTR Station, Central",Below $50,Hong Kong Style,Bakery,,,Central,40,Hong Kong,Central and Western,114.1587983,22.2799907
470,Sam Tor,"G/F, 30 Pottinger Street, Central",Below $50,Hong Kong Style,Noodles/Rice Noodles,,,Central,40,Hong Kong,Central and Western,114.155754,22.283098
471,Brickhouse,"G/F, 20A D__Aguilar Street, Lan Kwai Fong, Central",$101-$200,Mexican,Meatless Menu,,,Central,300,Others,Central and Western,114.155283,22.2804909
472,Chee Kei,"G/F-1/F, Chinese Club Building, 21-22 Connaught Road, Central",$51-$100,Guangdong,Noodles/Rice Noodles,Congee,Wonton/Dumpling,Central,75,Hong Kong,Central and Western,114.1574406,22.2831759
473,Fook Luk Sau Vegetarian Restaurant,"G/F, 8 Tit Hong Lane, Central",Below $50,Guangdong,Vegetarian,Fast Food,,Central,40,Hong Kong,Central and Western,114.1552277,22.2846988
474,L'altro,"10/F, The L.Place, 139 Queen__s Road, Central",$401-$800,Italian,Fine Dining,Western Restaurant,Bar,Central,600,Western,Central and Western,114.1729666,22.2746296
475,OVOCAFE,"1/F, Nan Fung Place, 173 Des Voeux Road Central, Central",$101-$200,Western,Vegetarian,Dessert,Meatless Menu,Central,300,Western,Central and Western,114.154442,22.285936
476,Lucullus Gourmet Shop,"Shop 14, Central MTR Station, Central",$51-$100,Western,Cake,Chocolate/Candy Shop,,Central,75,Western,Central and Western,114.1587983,22.2799907
477,Venchi Chocolate,"G/F., No.21 Stanley Street, Central",$51-$100,Western,Ice Cream/yogurt,Chocolate/Candy Shop,,Central,75,Western,Central and Western,114.155389,22.2827891
478,Maria's Bakery,"Shop A ,G/F Heung Lam Building, 23 Connaught Road, Central",Below $50,Hong Kong Style,Bakery,,,Central,40,Hong Kong,Central and Western,114.1573895,22.2832406
479,H agen-Dazs,"G/F, 24 D'Aguilar Street, Lan Kwai Fong, Central",$51-$100,Western,Ice Cream/yogurt,,,Central,75,Western,Central and Western,114.155283,22.2804909
480,The Tea Room by Antique,"G/F, Shop C, 2 Mee Lun Street, Central",$101-$200,British,French,Cake,Coffee Shop,Central,300,Western,Central and Western,114.15253,22.2838101
481,HKFYG Organic 21Organic 21,"G/F, 60 & 62B, Staunton Street, Soho, Central",$101-$200,Western,Herbal Cuisine,Meatless Menu,Organic Food,Central,300,Western,Central and Western,2.4146396,49.4214568
482,TaKorea,"B/F, 55 Wellington Street, Central",$51-$100,Korean,Mexican,Takeaway,,Central,75,Asian,Central and Western,114.1549317,22.2825295
483,Cova Pasticceria & Confetteria,"Shop 134-135, 1/F, Prince's Building, 10 Chater Road, Central",$51-$100,Western,Cake,Coffee Shop,Chocolate/Candy Shop,Central,75,Western,Central and Western,114.1592149,22.2811763
484,Posto Pubblico,"G/F, 28 Elgin Street, SOHO, Central",$401-$800,Italian,Western Restaurant,,,Central,600,Western,Central and Western,114.1587983,22.2799907
485,Motorino,"G/F, 14 Shelley Street, Soho, Central",$101-$200,Italian,Pizza,,,Central,300,Western,Central and Western,114.1512736,22.280014
486,Harvey Nichols Fourth Floor Restaurant & Bar Harvey Nichols,"4/F, Harvey Nichols, The Landmark, 16 Des Voeux Road Central, Central",$201-$400,French,Western Restaurant,,,Central,150,Western,Central and Western,114.157618,22.281554
487,Lobster Central,"Shop E, G/F, 50 Stanley Street, Central",$101-$200,American,Seafood,Hamburger,Western Restaurant,Central,300,Western,Central and Western,114.1550465,22.2827684
488,Fovea,"2/F, California Tower, 30-32 D'Aguilar Street, Lan Kwai Fong, Central",$201-$400,Guangdong,Seafood,Fine Dried Seafood,Soup,Central,150,Hong Kong,Central and Western,114.155736,22.2808027
489,City Hall Maxims Caf,"1/F, City Hall, 5-7 Edinburgh Place, Central",$101-$200,Western,Western Restaurant,,,Central,300,Western,Central and Western,114.1620405,22.2819765
490,Kikusan,"Shop B13-16, B/F, Landmark Atrium, 15 Queen's Road Central, Central",$101-$200,Japanese,,,,Central,300,Asian,Central and Western,114.1579662,22.2805507
491,SUSHI SASE,"UG/F, Hilltop Plaza, 49 Hollywood Road, Soho, Central",Above $801,Japanese,Sushi/Sashimi,Fine Dining,,Central,1200,Asian,Central and Western,114.1587983,22.2799907
492,Mrs Fields Cookies,"Shop W8, Central MTR Station, Central",Below $50,Western,Bakery,Takeaway,,Central,40,Western,Central and Western,114.1587983,22.2799907
493,ZUMA,"5/F, The Landmark,12-16 Des Voeux Road Central, Central",$201-$400,Japanese,Sushi/Sashimi,,,Central,150,Asian,Central and Western,114.1579288,22.281255
494,Lupa,"3/F, LHT Tower, 31 Queen__s Road, Central",$201-$400,Italian,Pizza,,,Central,150,Western,Central and Western,114.1587983,22.2799907
495,Shun Tak Fraternal Association,"3/F, United Building, 17-19 Jubilee Street, Central",$201-$400,Guangdong,Shunde,Stir-Fry,,Central,150,Hong Kong,Central and Western,114.1559234,22.2848759
496,sen-ryo,"Shop 3099-3100, 3/F, Tower Two, IFC Mall, 1 Harbour View Street, Central",$201-$400,Japanese,Sushi/Sashimi,Sushi Bar,,Central,150,Asian,Central and Western,114.1568459,22.2849128
497,Shanghai Jade,"Shop 402, 4/F, Exchange Square, 8 Connaught Road, Central",$101-$200,Shanghai,Stir-Fry,,,Central,300,Chinese,Central and Western,114.1585018,22.2822479
498,85 South,"6-10 Kau U Fong, Central",$51-$100,Western,American,BBQ,Western Restaurant,Central,75,Western,Central and Western,114.152916,22.284616
499,Club House of the Institute of Securities Dealers Limited,"19/F, Regent Centre, 88 Queen's Road, Lan Kwai Fong, Central",$101-$200,Guangdong,Stir-Fry,Club House,,Central,300,Hong Kong,Central and Western,114.155736,22.2808027
500,Healthy Chicken,"Shop A2, G/F, Khuan Ying Commercial Building,  87 Wellington St., Central",$101-$200,International,Certified Halal Food,Skewer,Western Restaurant,Central,300,International,Central and Western,114.1543593,22.2832887
501,La Cabane Wine Bistro,"G/F, 62 Hollywood Road, Soho, Central",$201-$400,French,Wine/Cigar,,,Central,150,Western,Central and Western,114.1528804,22.2830914
502,Piccolo Pizzeria & Bar,"G/F, 12 Kau U Fong, Central",$101-$200,Italian,,,,Central,300,Western,Central and Western,114.152855,22.28456
503,Kiangsu Chekiang and Shanghai Residents (HK) Association Restaurant,"3/F & 4/F, Manning House, 38-48 Queen's Road, Central",$101-$200,Jiang-Zhe,Shanghai,Stir-Fry,Group Dining,Central,300,Chinese,Central and Western,-96.8083612,33.105795
504,Blue Bar,"Lobby level, Four Seasons Hotel Hong Kong, 8 Finance Street, Central",$101-$200,Western,Buffet,Bar,Hotel Restaurant,Central,300,Western,Central and Western,114.1583339,22.2851951
505,Ho Lee Fook,"G/F, 1-5 Elgin Street, Soho, Central",$101-$200,Guangdong,,,,Central,300,Hong Kong,Central and Western,114.1587983,22.2799907
506,Pololi,"G/F., 35-39 Graham Street, Central",$51-$100,Japanese,American,Seafood,Sushi/Sashimi,Central,75,Asian,Central and Western,114.1533449,22.2828617
507,Tycoon Tann,"G-2/F, Ming Fat Building, 74 Wellington Street, Central",$401-$800,Guangdong,Stir-Fry,,,Central,600,Hong Kong,Central and Western,114.1549941,22.2822655
508,Wai Kee Congee Shop,"G/F, 82 Stanley St., Central",Below $50,Hong Kong Style,Congee,Stir-Fry,,Central,40,Hong Kong,Central and Western,114.1544756,22.283575
509,Paul Lafayet,"Shop 1104B, IFC, 1 Harbour View Street, Central",Below $50,French,Dessert,Takeaway,,Central,40,Western,Central and Western,114.1568459,22.2849128
510,Tulsi Indian Restaurant,"G/F, Fairview Court, 7 Tsat Tsz Mui Road, North Point",$101-$200,Indian,Curry,Western Restaurant,,North Point,300,South Asian,Eastern,114.2008815,22.290841
511,Alize Noire de Nova,"Shop 116-125, 1/F., Marble Garden, 33 Marble Road, North Point",$51-$100,Italian,French,Seafood,Pizza,North Point,75,Western,Eastern,114.2007029,22.2920588
512,Fook Yuen,"Shop I-1, G/F, Lei Do Building, 7 Fuk Yuen Street, North Point",Below $50,Hong Kong Style,Dessert,,,North Point,40,Hong Kong,Eastern,114.194024,22.28916
513,Tai Ping Kitchen,"Shop D, G/F, 124 Java Road, North Point",$51-$100,Chiu Chow,Guangdong,Hong Kong Style,Noodles/Rice Noodles,North Point,75,Chinese,Eastern,114.20044,22.292201
514,InnoVeggie.,"G/F., 2-4 Fort Street, North Point",$51-$100,International,Vegetarian,Ice Cream/yogurt,Curry,North Point,75,International,Eastern,114.196137,22.2894191
515,Darrie-Go!-Noodles,"G/F, Wah Hoi Mansion, 256 Electric Road, North Point",$51-$100,Guangdong,Noodles/Rice Noodles,Soup,Stir-Fry,North Point,75,Hong Kong,Eastern,114.1939314,22.2894354
516,YUE,"1/F, City Garden Hotel, 9 City Garden Road, North Point",$201-$400,Guangdong,Dim Sum,Stir-Fry,Dim Sum Restaurant,North Point,150,Hong Kong,Eastern,114.1941939,22.290303
517,Clover Cake & Coffee House,"126 Wharf Road, North Point",Below $50,Western,Bakery,Dessert,Coffee Shop,North Point,40,Western,Eastern,114.1980333,22.2921829
518,Ancient Moon,"Shop A, 29 Kam Ping Street, North Point",$51-$100,Singaporean,,,,North Point,75,Asian,Eastern,114.2000945,22.2900824
519,Viet Thai,"Shop 14-15, G/F, AIA Tower, 183 Electric Road, North Point",$51-$100,Vietnamese,Thai,Seafood,Curry,North Point,75,Asian,Eastern,114.1925561,22.2881542
520,Harbour Grand Caf ,"3/F, Harbour Grand Hong Kong, 23 Oil Street, North Point",$401-$800,International,Buffet,Western Restaurant,Hotel Restaurant,North Point,600,International,Eastern,114.1916195,22.2893803
521,La Kaffa,"Shop 4, G/F, Ming Yuen Centre 2-6 Ming Yuen Western Street, North Point",$101-$200,Western,Pizza,All Day Breakfast,Western Restaurant,North Point,300,Western,Eastern,114.1987351,22.2902364
522,Beef Noodles,"G/F, 41A Kam Ping Street, North Point",$51-$100,Xinjiang,Shanxi (Shan),Noodles/Rice Noodles,Skewer,North Point,75,South Asian,Eastern,114.2004615,22.2900494
523,The Big Bite,"Shop 4B, G/F Kar Fu Building, 196-202 Java Road, North Point",Below $50,American,Hamburger,Fast Food,,North Point,40,Western,Eastern,114.2022215,22.2925205
524,Tung Po,"2/F Java Road Municipal Services Building, 99 Java Road, North Point",$101-$200,Guangdong,Seafood,Dai Pai Dong,Group Dining,North Point,300,Hong Kong,Eastern,114.1994045,22.2923195
525,Charcoal Fish,"Shop A, G/F, Tung Po Building, 483-497 King's Road, North Point",$101-$200,Sichuan,Hunan,,,North Point,300,Chinese,Eastern,114.20189,22.2917275
526,Clay Pot Indian Restaurant,"CF5 2nd Floor, 229 Electric Road Market, North Point. Hong Kong, North Point",$51-$100,Indian,Curry,,,North Point,75,South Asian,Eastern,114.192803,22.2884683
527,Tsui Yuen Dessert,"G/F, North Point Road, North Point",Below $50,Hong Kong Style,Dessert,,,North Point,40,Hong Kong,Eastern,114.196578,22.2913187
528,McDonald's,"Shop 5A, B/F, Roca Centre, 460-470 King's Road,, North Point",Below $50,American,Hamburger,Fast Food,,North Point,40,Western,Eastern,114.2007932,22.2911456
529,Arome Bakery Room,"Shop 2, G/F, Aia Tower, 183 Electric Road, North Point",Below $50,Western,Bakery,,,North Point,40,Western,Eastern,114.1925561,22.2881542
530,Little Chilli,"No. 33, North Point Road, North Point",$101-$200,Sichuan,Hot Chili Oil,,,North Point,300,Chinese,Eastern,114.1962465,22.2917652
531,Sooo Vegi,"Shop A6, Wah Hoi Mansion, 254-280 Electric Road, North Point",Below $50,Hong Kong Style,International,Vegetarian,Meatless Menu,North Point,40,Hong Kong,Eastern,114.1939314,22.2894354
532,5enses Korean BBQ Restaurant,"1/F, Eternal Building, 112-114 Tsat Tsz Mui Road, North Point",$201-$400,Korean,BBQ,,,North Point,150,Asian,Eastern,114.2037405,22.291078
533,Kung Fu Dim Sum,"Shop 1, G/F, 98 Java Road, North Point",Below $50,Hong Kong Style,Dim Sum,Stir-Fry,,North Point,40,Hong Kong,Eastern,114.1996955,22.292053
534,Saizeriya Italian Restaurant,__________416________________2-3____,$51-$100,Italian,Pizza,Western Restaurant,,North Point,75,Western,Eastern,114.046117,22.475919
535,"Tim Ho Wan, the Dim-Sum Specialists","Shop B, C, & D, G/F, 2-8 Wharf Road,  Seaview Building, North Point",$51-$100,Hong Kong Style,Dim Sum,Stir-Fry,,North Point,75,Hong Kong,Eastern,-108.1421748,35.6975745
536,Garden Cafe,"1/F, City Garden Hotel, 9 City Garden Road, North Point",$201-$400,Western,Buffet,Western Restaurant,Hotel Restaurant,North Point,150,Western,Eastern,114.1941939,22.290303
537,Kung Fu Deluxe Dim Sum Hot Pot,"Shop B, G/F, Wah Hong Mansion, 6-8 Fort Street, North Point",$101-$200,Guangdong,Hot Pot,Dim Sum,Stir-Fry,North Point,300,Hong Kong,Eastern,114.1963271,22.2894645
538,Katsuisen,"G/F, Block A, Tung Fat Building, 21 Kam Ping Street, North Point",$101-$200,Japanese,Robatayaki,Sushi/Sashimi,Udon,North Point,300,Asian,Eastern,114.2002984,22.2901516
539,Da Hong Pao hotpot,"G/F, 19-23 Ming Yuen West Street, North Point",$101-$200,Hong Kong Style,Japanese,Hot Pot,,North Point,300,Hong Kong,Eastern,114.199084,22.2898255
540,Bellini,"Shop A, G/F, Seaview Building, 6C Wharf Road, North Point",$101-$200,Italian,Wine/Cigar,Seafood,Western Restaurant,North Point,300,Western,Eastern,114.195258,22.291406
541,Italy House,"G/F, 6A Kam Hong Street, North Point",$51-$100,Italian,Western Restaurant,,,North Point,75,Western,Eastern,114.201597,22.290932
542,Fung Shing Restaurant,"G/F & 1/F, Goldfield Mansion, 62-68 Java Road, North Point",$101-$200,Guangdong,Shunde,Dim Sum,Dim Sum Restaurant,North Point,300,Hong Kong,Eastern,12.0807203,50.8850706
543,Three Virtues Vegetarian Restaurant,"1/F, 395 King's Rd, North Point",$101-$200,Guangdong,Vegetarian,Stir-Fry,,North Point,300,Hong Kong,Eastern,114.199368,22.2912941
544,Coffee 101,"Shop 12, G/F, Braemar Hill Shopping Centre, 45 Braemar Hill Road, North Point",Below $50,Western,Bakery,All Day Breakfast,Coffee Shop,North Point,40,Western,Eastern,114.199711,22.285012
545,Red Star Restaurant & Pub,"Shop 10, UG, Phase 2, Healthy Village , North Point",$51-$100,Western,Western Restaurant,,,North Point,75,Western,Eastern,114.192803,22.2884683
546,Satay Inn,"Basement Level, City Garden Hotel, 9 City Garden Road, North Point, North Point",$101-$200,Singaporean,Hotel Restaurant,Group Dining,,North Point,300,Asian,Eastern,114.192803,22.2884683
547,Ca-Tu-Ya,"Wah Hoi Mansion, G/F., 262 Electric Road, North Point",$51-$100,Japanese,Soup,Udon,,North Point,75,Asian,Eastern,114.1939314,22.2894354
548,Kwan Cheuk Heen,"5/F, Harbour Grand Hong Kong, 23 Oil Street, North Point",$201-$400,Guangdong,Stir-Fry,Hotel Restaurant,,North Point,150,Hong Kong,Eastern,114.1916195,22.2893803
549,DONKA,"G/F, Block 3,City Garden, 233 Electric Road, North Point",$51-$100,Japanese,Ramen,Robatayaki,Udon,North Point,75,Asian,Eastern,114.194482,22.290648
550,Wing's Catering,"G/F, 485 King's Road, North Point",Below $50,Hong Kong Style,Tea Restaurant,,,North Point,40,Hong Kong,Eastern,114.201748,22.291497
551,Han Sing Sing Korean Cuisine,"G/F.,, Kingsfield Centre, 18 Shell Street, North Point",$101-$200,Korean,,,,North Point,300,Asian,Eastern,114.1919875,22.2869976
552,Mui Fa Chuen Restaurant,"G/F, 8A Tsat Tsz Mui Road, North Point",$51-$100,Chiu Chow,Noodles/Rice Noodles,Stir-Fry,,North Point,75,Chinese,Eastern,114.20076,22.290467
